[{"mean": 234.21773229105452, "city": "New Brunswick-Piscataway", "color": "#2C2A29", "latitude": 40.486678, "name": "Rutgers", "median": 51.288933167348354, "conference": "Big Ten", "state": "NJ", "roster": [{"city": "Midland Park", "latitude": 40.995809, "state": "NJ", "position": "P", "longitude": -74.141262}, {"city": "Montvale", "latitude": 41.054594, "state": "NJ", "position": "PK", "longitude": -74.047298}, {"city": "Sicklerville", "latitude": 39.71722, "state": "NJ", "position": "LB", "longitude": -74.96944}, {"city": "West Long Branch", "latitude": 40.287904, "state": "NJ", "position": "PK", "longitude": -74.020019}, {"city": "Trilby", "latitude": 28.4625, "state": "FL", "position": "WR", "longitude": -82.19472}, {"city": "Plainfield", "latitude": 40.615444, "state": "NJ", "position": "DB", "longitude": -74.415775}, {"city": "Pembroke Pines", "latitude": 26.0125, "state": "FL", "position": "WR", "longitude": -80.31361}, {"city": "Saddle Brook", "latitude": 40.902976, "state": "NJ", "position": "LB", "longitude": -74.101061}, {"city": "Edison", "latitude": 40.503991, "state": "NJ", "position": "WR", "longitude": -74.349411}, {"city": "Glassboro", "latitude": 39.700096, "state": "NJ", "position": "DB", "longitude": -75.111423}, {"city": "Glen Head", "latitude": 40.84056, "state": "NY", "position": "QB", "longitude": -73.61889}, {"city": "Cheltenham", "latitude": 40.06667, "state": "PA", "position": "RB", "longitude": -75.11639}, {"city": "Harrisburg", "latitude": 40.26972, "state": "PA", "position": "RB", "longitude": -76.87556}, {"city": "Palmetto", "latitude": 27.52222, "state": "FL", "position": "RB", "longitude": -82.57833}, {"city": "Queens", "latitude": 40.75, "state": "NY", "position": "DB", "longitude": -73.867}, {"city": "Los Angeles", "latitude": 34.05, "state": "CA", "position": "QB", "longitude": -118.25}, {"city": "Kissimmee", "latitude": 28.30389, "state": "FL", "position": "DB", "longitude": -81.41278}, {"city": "Somerset", "latitude": 40.508507, "state": "NJ", "position": "WR", "longitude": -74.500207}, {"city": "Pleasantville", "latitude": 39.3888, "state": "NJ", "position": "LB", "longitude": -74.514263}, {"city": "Moorestown", "latitude": 39.977074, "state": "NJ", "position": "QB", "longitude": -74.944998}, {"city": "King Of Prussia", "latitude": 40.1, "state": "PA", "position": "LB", "longitude": -75.383}, {"city": "Warren", "latitude": 42.49194, "state": "MI", "position": "QB", "longitude": -83.02389}, {"city": "Elmwood Park", "latitude": 40.904526, "state": "NJ", "position": "QB", "longitude": -74.119514}, {"city": "Loudonville", "latitude": 42.70472, "state": "NY", "position": "QB", "longitude": -73.75472}, {"city": "Rochester", "latitude": 43.16556, "state": "NY", "position": "LB", "longitude": -77.61139}, {"city": "Levittown", "latitude": 40.15417, "state": "PA", "position": "RB", "longitude": -74.84972}, {"city": "Sicklerville", "latitude": 39.71722, "state": "NJ", "position": "DL", "longitude": -74.96944}, {"city": "Baltimore", "latitude": 39.283, "state": "MD", "position": "DB", "longitude": -76.617}, {"city": "Palm Beach Gardens", "latitude": 26.848788, "state": "FL", "position": "DB", "longitude": -80.167124}, {"city": "Brooklyn", "latitude": 40.62472, "state": "NY", "position": "LB", "longitude": -73.95222}, {"city": "Paterson", "latitude": 40.914746, "state": "NJ", "position": "DB", "longitude": -74.162826}, {"city": "Jackson", "latitude": 40.093077, "state": "NJ", "position": "TE", "longitude": -74.35618}, {"city": "Paterson", "latitude": 40.914746, "state": "NJ", "position": "DB", "longitude": -74.162826}, {"city": "Madison", "latitude": 41.333, "state": "CT", "position": "FB", "longitude": -72.633}, {"city": "Apple Valley", "latitude": 44.73194, "state": "MN", "position": "DB", "longitude": -93.2175}, {"city": "Madison", "latitude": 40.758, "state": "NJ", "position": "RB", "longitude": -74.4178}, {"city": "Colonia", "latitude": 40.594133, "state": "NJ", "position": "RB", "longitude": -74.31377}, {"city": "East Orange", "latitude": 40.765058, "state": "NJ", "position": "DB", "longitude": -74.211862}, {"city": "Glassboro", "latitude": 39.700096, "state": "NJ", "position": "RB", "longitude": -75.111423}, {"city": "New City", "latitude": 41.14556, "state": "NY", "position": "LB", "longitude": -73.995}, {"city": "Kendall Park", "latitude": 40.413404, "state": "NJ", "position": "LB", "longitude": -74.562457}, {"city": "Albany", "latitude": 42.6525, "state": "NY", "position": "FB", "longitude": -73.75722}, {"city": "Raleigh", "latitude": 35.78056, "state": "NC", "position": "DL", "longitude": -78.63889}, {"city": "Delran", "latitude": 40.013024, "state": "NJ", "position": "DB", "longitude": -74.947423}, {"city": "Sicklerville", "latitude": 39.71722, "state": "NJ", "position": "DL", "longitude": -74.96944}, {"city": "Somerset", "latitude": 40.508507, "state": "NJ", "position": "WR", "longitude": -74.500207}, {"city": "Franklin Park", "latitude": 40.444481, "state": "NJ", "position": "FB", "longitude": -74.542572}, {"city": "Baltimore", "latitude": 39.283, "state": "MD", "position": "DB", "longitude": -76.617}, {"city": "Egg Harbor Township", "latitude": 39.378291, "state": "NJ", "position": "LB", "longitude": -74.599779}, {"city": "Andover", "latitude": 40.985758, "state": "NJ", "position": "LB", "longitude": -74.74359}, {"city": "Burlington", "latitude": 40.071, "state": "NJ", "position": "DB", "longitude": -74.864}, {"city": "Holland", "latitude": 40.20083, "state": "PA", "position": "TE", "longitude": -74.97194}, {"city": "Chuluota", "latitude": 28.64139, "state": "FL", "position": "TE", "longitude": -81.12444}, {"city": "Cottage Grove", "latitude": 44.82778, "state": "MN", "position": "TE", "longitude": -92.94389}, {"city": "Jersey City", "latitude": 40.714, "state": "NJ", "position": "DB", "longitude": -74.071}, {"city": "East Stroudsburg", "latitude": 41.00139, "state": "PA", "position": "FB", "longitude": -75.18}, {"city": "Rochester", "latitude": 43.16556, "state": "NY", "position": "WR", "longitude": -77.61139}, {"city": "Montclair", "latitude": 40.824415, "state": "NJ", "position": "FB", "longitude": -74.212352}, {"city": "Lancaster", "latitude": 40.03972, "state": "PA", "position": "TE", "longitude": -76.30444}, {"city": "Oakland", "latitude": 37.80444, "state": "CA", "position": "LB", "longitude": -122.27083}, {"city": "Ray City", "latitude": 31.07556, "state": "GA", "position": "TE", "longitude": -83.1975}, {"city": "Columbus", "latitude": 40.0725, "state": "NJ", "position": "FB", "longitude": -74.72083}, {"city": "Pembroke Pines", "latitude": 26.0125, "state": "FL", "position": "LB", "longitude": -80.31361}, {"city": "Rochester", "latitude": 43.16556, "state": "NY", "position": "LB", "longitude": -77.61139}, {"city": "Stroudsburg", "latitude": 40.98583, "state": "PA", "position": "DL", "longitude": -75.19528}, {"city": "Montclair", "latitude": 40.824415, "state": "NJ", "position": "DL", "longitude": -74.212352}, {"city": "Brooklyn", "latitude": 40.62472, "state": "NY", "position": "DL", "longitude": -73.95222}, {"city": "Long Branch", "latitude": 40.295372, "state": "NJ", "position": "OL", "longitude": -73.989899}, {"city": "Reading", "latitude": 40.34167, "state": "PA", "position": "LB", "longitude": -75.92639}, {"city": "South Brunswick", "latitude": 40.385022, "state": "NJ", "position": "LS", "longitude": -74.522936}, {"city": "Newark", "latitude": 40.72422, "state": "NJ", "position": "DE", "longitude": -74.172574}, {"city": "Metuchen", "latitude": 40.542445, "state": "NJ", "position": "OL", "longitude": -74.362767}, {"city": "West Chazy", "latitude": 44.82056, "state": "NY", "position": "OL", "longitude": -73.50833}, {"city": "Queens", "latitude": 40.75, "state": "NY", "position": "OL", "longitude": -73.867}, {"city": "Long Beach", "latitude": 40.58806, "state": "NY", "position": "OL", "longitude": -73.68806}, {"city": "Rochester", "latitude": 43.16556, "state": "NY", "position": "OL", "longitude": -77.61139}, {"city": "Webster", "latitude": 43.20889, "state": "NY", "position": "LS", "longitude": -77.45944}, {"city": "Capitol Heights", "latitude": 38.88194, "state": "MD", "position": "OL", "longitude": -76.91444}, {"city": "Weeki Wachee", "latitude": 28.51556, "state": "FL", "position": "OL", "longitude": -82.57861}, {"city": "Philadelphia", "latitude": 39.95, "state": "PA", "position": "OL", "longitude": -75.167}, {"city": "Media", "latitude": 39.91889, "state": "PA", "position": "OL", "longitude": -75.38806}, {"city": "Montclair", "latitude": 40.824415, "state": "NJ", "position": "OL", "longitude": -74.212352}, {"city": "Yardley", "latitude": 40.24139, "state": "PA", "position": "OL", "longitude": -74.83639}, {"city": "Western Springs", "latitude": 41.80556, "state": "IL", "position": "OL", "longitude": -87.90111}, {"city": "Budd Lake", "latitude": 40.873494, "state": "NJ", "position": "OL", "longitude": -74.736828}, {"city": "Short Hills", "latitude": 40.739157, "state": "NJ", "position": "WR", "longitude": -74.327442}, {"city": "Chester", "latitude": 40.776312, "state": "NJ", "position": "TE", "longitude": -74.687645}, {"city": "Jacksonville", "latitude": 30.33694, "state": "FL", "position": "WR", "longitude": -81.66139}, {"city": "Tenafly", "latitude": 40.918309, "state": "NJ", "position": "TE", "longitude": -73.950521}, {"city": "Cape May", "latitude": 38.940782, "state": "NJ", "position": "WR", "longitude": -74.903198}, {"city": "Wilmington", "latitude": 39.74583, "state": "DE", "position": "WR", "longitude": -75.54667}, {"city": "Reading", "latitude": 40.34167, "state": "PA", "position": "WR", "longitude": -75.92639}, {"city": "Baltimore", "latitude": 39.283, "state": "MD", "position": "DL", "longitude": -76.617}, {"city": "West Paterson", "latitude": 40.889908, "state": "NJ", "position": "DL", "longitude": -74.194581}, {"city": "Egg Harbor Township", "latitude": 39.378291, "state": "NJ", "position": "DL", "longitude": -74.599779}, {"city": "Hollywood", "latitude": 26.02139, "state": "FL", "position": "DL", "longitude": -80.175}, {"city": "Piscataway", "latitude": 40.54564, "state": "NJ", "position": "PK", "longitude": -74.460817}, {"city": "Winslow", "latitude": 39.701722, "state": "NJ", "position": "PK", "longitude": -74.908351}, {"city": "Mahwah", "latitude": 41.082746, "state": "NJ", "position": "P", "longitude": -74.187451}, {"city": "Orange", "latitude": 40.76804, "state": "NJ", "position": "DL", "longitude": -74.235692}, {"city": "Basking Ridge", "latitude": 40.7062, "state": "NJ", "position": "P", "longitude": -74.5493}, {"city": "Somers", "latitude": 41.32167, "state": "NY", "position": "PK", "longitude": -73.71833}, {"city": "Franklin Lakes", "latitude": 41.007529, "state": "NJ", "position": "PK", "longitude": -74.205652}, {"city": "Wyckoff", "latitude": 40.999093, "state": "NJ", "position": "DL", "longitude": -74.168849}, {"city": "Mahwah", "latitude": 41.082746, "state": "NJ", "position": "DL", "longitude": -74.187451}], "longitude": -74.444414}, {"mean": 226.3817557856467, "city": "University Park", "color": "#012D62", "latitude": 40.796111, "name": "Penn State", "median": 152.2934518625031, "conference": "Big Ten", "state": "PA", "roster": [{"city": "Phenix City", "latitude": 32.47083, "state": "AL", "position": "CB", "longitude": -85.00278}, {"city": "Upper Marlboro", "latitude": 38.81639, "state": "MD", "position": "S", "longitude": -76.75333}, {"city": "Plymouth", "latitude": 43.7575, "state": "NH", "position": "WR", "longitude": -71.68861}, {"city": "Indianapolis", "latitude": 39.767, "state": "IN", "position": "QB", "longitude": -86.15}, {"city": "Coatesville", "latitude": 39.98361, "state": "PA", "position": "CB", "longitude": -75.81667}, {"city": "Fredericksburg", "latitude": 38.301806, "state": "VA", "position": "WR", "longitude": -77.47083}, {"city": "New Rochelle", "latitude": 40.92861, "state": "NY", "position": "S", "longitude": -73.78417}, {"city": "Philadelphia", "latitude": 39.95, "state": "PA", "position": "LB", "longitude": -75.167}, {"city": "Hartford", "latitude": 41.7627361, "state": "CT", "position": "S", "longitude": -72.6742861}, {"city": "Mechanicsburg", "latitude": 40.21222, "state": "PA", "position": "RB", "longitude": -77.00611}, {"city": "Wilkes-barre", "latitude": 41.24444, "state": "PA", "position": "WR", "longitude": -75.87806}, {"city": "Hyattsville", "latitude": 38.95694, "state": "MD", "position": "RB", "longitude": -76.95139}, {"city": "Miami", "latitude": 25.77528, "state": "FL", "position": "LB", "longitude": -80.20889}, {"city": "Ashburn", "latitude": 39.04361, "state": "VA", "position": "QB", "longitude": -77.4875}, {"city": "Ashburn", "latitude": 39.04361, "state": "VA", "position": "WR", "longitude": -77.4875}, {"city": "Baltimore", "latitude": 39.283, "state": "MD", "position": "CB", "longitude": -76.617}, {"city": "Mays Landing", "latitude": 39.452862, "state": "NJ", "position": "LB", "longitude": -74.723936}, {"city": "Clinton", "latitude": 38.76361, "state": "MD", "position": "TE", "longitude": -76.89556}, {"city": "Middletown", "latitude": 39.45444, "state": "DE", "position": "WR", "longitude": -75.71389}, {"city": "Washington", "latitude": 38.90472, "state": "DC", "position": "CB", "longitude": -77.01639}, {"city": "Manalapan", "latitude": 40.282353, "state": "NJ", "position": "WR", "longitude": -74.346565}, {"city": "West Barnstable", "latitude": 41.70556, "state": "MA", "position": "QB", "longitude": -70.37444}, {"city": "Palmyra", "latitude": 37.86111, "state": "VA", "position": "QB", "longitude": -78.26333}, {"city": "Suffield", "latitude": 41.983, "state": "CT", "position": "S", "longitude": -72.683}, {"city": "Atlanta", "latitude": 33.755, "state": "GA", "position": "CB", "longitude": -84.39}, {"city": "Erie", "latitude": 42.1295611, "state": "PA", "position": "QB", "longitude": -80.0852139}, {"city": "Lower Burrell", "latitude": 40.58389, "state": "PA", "position": "S", "longitude": -79.72194}, {"city": "Rosemount", "latitude": 44.74111, "state": "MN", "position": "QB", "longitude": -93.11972}, {"city": "Richmond", "latitude": 37.533, "state": "VA", "position": "CB", "longitude": -77.467}, {"city": "Brandywine", "latitude": 38.69861, "state": "MD", "position": "TE", "longitude": -76.84917}, {"city": "Tuscaloosa", "latitude": 33.20667, "state": "AL", "position": "DE", "longitude": -87.53472}, {"city": "Pittsburgh", "latitude": 40.43972, "state": "PA", "position": "WR", "longitude": -79.97639}, {"city": "Lake City", "latitude": 42.01722, "state": "PA", "position": "LB", "longitude": -80.34667}, {"city": "Peabody", "latitude": 42.52778, "state": "MA", "position": "RB", "longitude": -70.92917}, {"city": "Tampa", "latitude": 27.96806, "state": "FL", "position": "CB", "longitude": -82.47639}, {"city": "Toronto", "latitude": 43.7, "state": "ON", "position": "RB", "longitude": -79.4}, {"city": "Largo", "latitude": 38.87694, "state": "MD", "position": "S", "longitude": -76.83056}, {"city": "Fairfax", "latitude": 38.8525, "state": "VA", "position": "RB", "longitude": -77.30417}, {"city": "Dover", "latitude": 40.8856, "state": "NJ", "position": "S", "longitude": -74.559163}, {"city": "Mill Hall", "latitude": 41.10722, "state": "PA", "position": "LB", "longitude": -77.48417}, {"city": "Coplay", "latitude": 40.67056, "state": "PA", "position": "RB", "longitude": -75.49528}, {"city": "Sinking Spring", "latitude": 40.32472, "state": "PA", "position": "S", "longitude": -76.0225}, {"city": "Harrisburg", "latitude": 40.26972, "state": "PA", "position": "RB", "longitude": -76.87556}, {"city": "Mt. Lebanon", "latitude": 40.375, "state": "PA", "position": "S", "longitude": -80.05}, {"city": "Mount Laurel", "latitude": 39.948992, "state": "NJ", "position": "CB", "longitude": -74.900247}, {"city": "Altoona", "latitude": 40.5107, "state": "PA", "position": "DE", "longitude": -78.3997}, {"city": "Detroit", "latitude": 42.33139, "state": "MI", "position": "TE", "longitude": -83.04583}, {"city": "Mundelein", "latitude": 42.267, "state": "IL", "position": "S", "longitude": -88.0}, {"city": "State College", "latitude": 40.79139, "state": "PA", "position": "LB", "longitude": -77.85861}, {"city": "Doylestown", "latitude": 40.31278, "state": "PA", "position": "LB", "longitude": -75.12889}, {"city": "Mohnton", "latitude": 40.28611, "state": "PA", "position": "LB", "longitude": -75.98583}, {"city": "Dillsburg", "latitude": 40.11139, "state": "PA", "position": "TE", "longitude": -77.03583}, {"city": "State College", "latitude": 40.79139, "state": "PA", "position": "LB", "longitude": -77.85861}, {"city": "Haddonfield", "latitude": 39.895437, "state": "NJ", "position": "RB", "longitude": -75.034294}, {"city": "Robbinsville", "latitude": 40.224723, "state": "NJ", "position": "CB", "longitude": -74.594025}, {"city": "Toms River", "latitude": 39.994314, "state": "NJ", "position": "PK", "longitude": -74.166214}, {"city": "Columbia", "latitude": 39.20361, "state": "MD", "position": "WR", "longitude": -76.85694}, {"city": "Flemington", "latitude": 40.508651, "state": "NJ", "position": "LB", "longitude": -74.860113}, {"city": "Huntsville", "latitude": 34.73, "state": "AL", "position": "DT", "longitude": -86.585}, {"city": "Nescopeck", "latitude": 41.0525, "state": "PA", "position": "LS", "longitude": -76.21583}, {"city": "Wilmington", "latitude": 39.74583, "state": "DE", "position": "LB", "longitude": -75.54667}, {"city": "Barnegat", "latitude": 39.768515, "state": "NJ", "position": "LB", "longitude": -74.27688}, {"city": "Royersford", "latitude": 40.18528, "state": "PA", "position": "LS", "longitude": -75.53778}, {"city": "Mckeesport", "latitude": 40.34389, "state": "PA", "position": "S", "longitude": -79.84889}, {"city": "Barrington", "latitude": 42.15361, "state": "IL", "position": "DE", "longitude": -88.13194}, {"city": "Philadelphia", "latitude": 39.95, "state": "PA", "position": "DE", "longitude": -75.167}, {"city": "Andover", "latitude": 42.65833, "state": "MA", "position": "DE", "longitude": -71.1375}, {"city": "Warrington", "latitude": 40.23972, "state": "PA", "position": "G", "longitude": -75.14167}, {"city": "Winchester", "latitude": 39.183, "state": "VA", "position": "G", "longitude": -78.167}, {"city": "Fond Du Lac", "latitude": 43.767, "state": "WI", "position": "DT", "longitude": -88.45}, {"city": "Silver Spring", "latitude": 39.00417, "state": "MD", "position": "DE", "longitude": -77.01889}, {"city": "Marlton", "latitude": 39.901885, "state": "NJ", "position": "G", "longitude": -74.929277}, {"city": "Union City", "latitude": 40.76746, "state": "NJ", "position": "G", "longitude": -74.032295}, {"city": "Middletown", "latitude": 39.5, "state": "OH", "position": "OT", "longitude": -84.383}, {"city": "Hershey", "latitude": 40.27833, "state": "PA", "position": "OT", "longitude": -76.65111}, {"city": "Moscow", "latitude": 41.33917, "state": "PA", "position": "OT", "longitude": -75.52917}, {"city": "Richmond", "latitude": 37.533, "state": "VA", "position": "G", "longitude": -77.467}, {"city": "Hollidaysburg", "latitude": 40.43167, "state": "PA", "position": "G", "longitude": -78.39222}, {"city": "Dallas", "latitude": 41.33333, "state": "PA", "position": "DT", "longitude": -75.96667}, {"city": "ROXBURY", "latitude": 40.888304, "state": "NJ", "position": "C", "longitude": -74.650869}, {"city": "Scranton", "latitude": 41.41056, "state": "PA", "position": "C", "longitude": -75.6675}, {"city": "State College", "latitude": 40.79139, "state": "PA", "position": "G", "longitude": -77.85861}, {"city": "Randolph", "latitude": 40.841691, "state": "NJ", "position": "G", "longitude": -74.57833}, {"city": "Warwick", "latitude": 41.26111, "state": "NY", "position": "OT", "longitude": -74.35528}, {"city": "Pasadena", "latitude": 39.1128083, "state": "MD", "position": "G", "longitude": -76.5518722}, {"city": "Plymouth", "latitude": 35.85972, "state": "NC", "position": "OT", "longitude": -76.74778}, {"city": "State College", "latitude": 40.79139, "state": "PA", "position": "G", "longitude": -77.85861}, {"city": "Park Ridge", "latitude": 42.01194, "state": "IL", "position": "OT", "longitude": -87.84167}, {"city": "Pittsburgh", "latitude": 40.43972, "state": "PA", "position": "OT", "longitude": -79.97639}, {"city": "Woodbridge", "latitude": 38.64361, "state": "VA", "position": "G", "longitude": -77.26083}, {"city": "Lititz", "latitude": 40.15472, "state": "PA", "position": "C", "longitude": -76.30333}, {"city": "Pittsford", "latitude": 43.08972, "state": "NY", "position": "OT", "longitude": -77.51667}, {"city": "Burke", "latitude": 38.78139, "state": "VA", "position": "WR", "longitude": -77.27083}, {"city": "Mechanicsburg", "latitude": 40.21222, "state": "PA", "position": "TE", "longitude": -77.00611}, {"city": "Nashville", "latitude": 36.16667, "state": "TN", "position": "WR", "longitude": -86.78333}, {"city": "Kittanning", "latitude": 40.82, "state": "PA", "position": "TE", "longitude": -79.52139}, {"city": "Glassboro", "latitude": 39.700096, "state": "NJ", "position": "WR", "longitude": -75.111423}, {"city": "Sicklerville", "latitude": 39.71722, "state": "NJ", "position": "WR", "longitude": -74.96944}, {"city": "Bear", "latitude": 39.62028, "state": "DE", "position": "TE", "longitude": -75.68472}, {"city": "Exton", "latitude": 40.03306, "state": "PA", "position": "WR", "longitude": -75.62778}, {"city": "Manahawkin", "latitude": 39.693472, "state": "NJ", "position": "TE", "longitude": -74.250229}, {"city": "Ambler", "latitude": 40.155, "state": "PA", "position": "WR", "longitude": -75.22028}, {"city": "West Chester", "latitude": 39.95861, "state": "PA", "position": "TE", "longitude": -75.605}, {"city": "Red Bank", "latitude": 40.348697, "state": "NJ", "position": "DE", "longitude": -74.066472}, {"city": "Bainbridge", "latitude": 30.90472, "state": "GA", "position": "DT", "longitude": -84.57111}, {"city": "Clarks Summit", "latitude": 41.49278, "state": "PA", "position": "DT", "longitude": -75.705}, {"city": "Millville", "latitude": 39.390094, "state": "NJ", "position": "DT", "longitude": -75.054797}, {"city": "Harrisburg", "latitude": 40.26972, "state": "PA", "position": "DE", "longitude": -76.87556}, {"city": "Saint Charles", "latitude": 41.913744, "state": "IL", "position": "PK", "longitude": -88.31085}, {"city": "West Chester", "latitude": 39.95861, "state": "PA", "position": "DE", "longitude": -75.605}, {"city": "Hackettstown", "latitude": 40.853704, "state": "NJ", "position": "DT", "longitude": -74.824877}, {"city": "Malvern", "latitude": 40.03444, "state": "PA", "position": "DE", "longitude": -75.51444}, {"city": "Tampa", "latitude": 27.96806, "state": "FL", "position": "LS", "longitude": -82.47639}, {"city": "Hermitage", "latitude": 41.2325, "state": "PA", "position": "PK", "longitude": -80.46056}, {"city": "West Branch", "latitude": 44.27556, "state": "MI", "position": "DT", "longitude": -84.23528}, {"city": "Galloway", "latitude": 39.491453, "state": "NJ", "position": "DT", "longitude": -74.473865}, {"city": "Hummelstown", "latitude": 40.26528, "state": "PA", "position": "PK", "longitude": -76.70861}], "longitude": -77.862778}, {"mean": 402.4313549839737, "city": "Urbana-Champaign", "color": "#E87722", "latitude": 40.115, "name": "Illinois", "median": 161.59714467645884, "conference": "Big Ten", "state": "IL", "roster": [{"city": "Cleveland", "latitude": 41.48222, "state": "OH", "position": "DB", "longitude": -81.66972}, {"city": "Upper Marlboro", "latitude": 38.81639, "state": "MD", "position": "RB", "longitude": -76.75333}, {"city": "Orlando", "latitude": 28.41583, "state": "FL", "position": "DB", "longitude": -81.29889}, {"city": "Indianapolis", "latitude": 39.767, "state": "IN", "position": "QB", "longitude": -86.15}, {"city": "Upper Marlboro", "latitude": 38.81639, "state": "MD", "position": "DB", "longitude": -76.75333}, {"city": "Fort Lauderdale", "latitude": 26.133, "state": "FL", "position": "WR", "longitude": -80.15}, {"city": "Deerfield Beach", "latitude": 26.31806, "state": "FL", "position": "S", "longitude": -80.09972}, {"city": "Naperville", "latitude": 41.74806, "state": "IL", "position": "RB", "longitude": -88.16556}, {"city": "Miami", "latitude": 25.77528, "state": "FL", "position": "DE", "longitude": -80.20889}, {"city": "Granville", "latitude": 40.0675, "state": "OH", "position": "QB", "longitude": -82.51222}, {"city": "Hilliard", "latitude": 40.03444, "state": "OH", "position": "DB", "longitude": -83.14278}, {"city": "Tampa", "latitude": 27.96806, "state": "FL", "position": "WR", "longitude": -82.47639}, {"city": "Charleston", "latitude": 39.48472, "state": "IL", "position": "DB", "longitude": -88.17806}, {"city": "Detroit", "latitude": 42.33139, "state": "MI", "position": "RB", "longitude": -83.04583}, {"city": "Missouri City", "latitude": 29.58278, "state": "TX", "position": "WR", "longitude": -95.53944}, {"city": "Detroit", "latitude": 42.33139, "state": "MI", "position": "DL", "longitude": -83.04583}, {"city": "New Lenox", "latitude": 41.508251, "state": "IL", "position": "LB", "longitude": -87.970597}, {"city": "Champaign", "latitude": 40.115, "state": "IL", "position": "QB", "longitude": -88.27278}, {"city": "Dayton", "latitude": 39.75944, "state": "OH", "position": "DL", "longitude": -84.19167}, {"city": "Springfield", "latitude": 39.69833, "state": "IL", "position": "WR", "longitude": -89.61972}, {"city": "Orange", "latitude": 30.10917, "state": "TX", "position": "DB", "longitude": -93.75917}, {"city": "Rochester", "latitude": 39.75056, "state": "IL", "position": "QB", "longitude": -89.54167}, {"city": "Indianapolis", "latitude": 39.767, "state": "IN", "position": "PK", "longitude": -86.15}, {"city": "Gurnee", "latitude": 42.367, "state": "IL", "position": "TE", "longitude": -87.933}, {"city": "Riverside", "latitude": 33.94806, "state": "CA", "position": "S", "longitude": -117.39611}, {"city": "Troy", "latitude": 42.58028, "state": "MI", "position": "QB", "longitude": -83.14306}, {"city": "Bolingbrook", "latitude": 41.69861, "state": "IL", "position": "QB", "longitude": -88.08861}, {"city": "Philadelphia", "latitude": 39.95, "state": "PA", "position": "WR", "longitude": -75.167}, {"city": "Bolingbrook", "latitude": 41.69861, "state": "IL", "position": "DL", "longitude": -88.08861}, {"city": "Arlington", "latitude": 32.705, "state": "TX", "position": "WR", "longitude": -97.12278}, {"city": "Philadelphia", "latitude": 39.95, "state": "PA", "position": "DL", "longitude": -75.167}, {"city": "Orland Park", "latitude": 41.60722, "state": "IL", "position": "PK", "longitude": -87.86167}, {"city": "Naperville", "latitude": 41.74806, "state": "IL", "position": "WR", "longitude": -88.16556}, {"city": "Cleveland", "latitude": 41.48222, "state": "OH", "position": "WR", "longitude": -81.66972}, {"city": "Cleveland", "latitude": 41.48222, "state": "OH", "position": "DB", "longitude": -81.66972}, {"city": "Lemont", "latitude": 41.668784, "state": "IL", "position": "DB", "longitude": -87.988845}, {"city": "Sherman Oaks", "latitude": 34.15111, "state": "CA", "position": "WR", "longitude": -118.44833}, {"city": "Chicago", "latitude": 41.83694, "state": "IL", "position": "DB", "longitude": -87.68472}, {"city": "Cleveland", "latitude": 41.48222, "state": "OH", "position": "LB", "longitude": -81.66972}, {"city": "Lawrenceville", "latitude": 33.95306, "state": "GA", "position": "RB", "longitude": -83.9925}, {"city": "Chicago", "latitude": 41.83694, "state": "IL", "position": "DB", "longitude": -87.68472}, {"city": "O Fallon", "latitude": 38.59611, "state": "IL", "position": "DB", "longitude": -89.91551}, {"city": "Peoria", "latitude": 40.72083, "state": "IL", "position": "RB", "longitude": -89.60944}, {"city": "Calumet City", "latitude": 41.61417, "state": "IL", "position": "DB", "longitude": -87.54639}, {"city": "River Forest", "latitude": 41.89306, "state": "IL", "position": "RB", "longitude": -87.8175}, {"city": "DeKalb", "latitude": 41.93139, "state": "IL", "position": "RB", "longitude": -88.75028}, {"city": "Belle Glade", "latitude": 26.68528, "state": "FL", "position": "DB", "longitude": -80.67139}, {"city": "Chicago", "latitude": 41.83694, "state": "IL", "position": "DB", "longitude": -87.68472}, {"city": "Franklin Park", "latitude": 41.93389, "state": "IL", "position": "S", "longitude": -87.87333}, {"city": "Carpentersville", "latitude": 42.12111, "state": "IL", "position": "DB", "longitude": -88.27472}, {"city": "Tinley Park", "latitude": 41.57389, "state": "IL", "position": "DB", "longitude": -87.80389}, {"city": "Elmhurst", "latitude": 41.89222, "state": "IL", "position": "TE", "longitude": -87.94389}, {"city": "Schaumburg", "latitude": 42.03028, "state": "IL", "position": "WR", "longitude": -88.08389}, {"city": "Frisco", "latitude": 33.14139, "state": "TX", "position": "S", "longitude": -96.81306}, {"city": "Tampa", "latitude": 27.96806, "state": "FL", "position": "LB", "longitude": -82.47639}, {"city": "Brunswick", "latitude": 41.24417, "state": "OH", "position": "LB", "longitude": -81.82833}, {"city": "Orland Park", "latitude": 41.60722, "state": "IL", "position": "PK", "longitude": -87.86167}, {"city": "Casey", "latitude": 39.29944, "state": "IL", "position": "LB", "longitude": -87.99}, {"city": "Rice Lake", "latitude": 45.49833, "state": "WI", "position": "LB", "longitude": -91.73889}, {"city": "Naperville", "latitude": 41.74806, "state": "IL", "position": "DB", "longitude": -88.16556}, {"city": "Las Vegas", "latitude": 36.175, "state": "NV", "position": "DB", "longitude": -115.13639}, {"city": "Bartlett", "latitude": 41.99528, "state": "IL", "position": "PK", "longitude": -88.18556}, {"city": "Eureka", "latitude": 38.50278, "state": "MO", "position": "TE", "longitude": -90.645}, {"city": "Bamberg", "latitude": 33.29833, "state": "SC", "position": "RB", "longitude": -81.03194}, {"city": "Highland Park", "latitude": 42.1825, "state": "IL", "position": "LB", "longitude": -87.80694}, {"city": "Chicago", "latitude": 41.83694, "state": "IL", "position": "P", "longitude": -87.68472}, {"city": "Vernon Hills", "latitude": 42.23111, "state": "IL", "position": "LB", "longitude": -87.96917}, {"city": "San Leandro", "latitude": 37.725, "state": "CA", "position": "DL", "longitude": -122.15611}, {"city": "Wheaton", "latitude": 41.85611, "state": "IL", "position": "TE", "longitude": -88.10833}, {"city": "Orrville", "latitude": 40.833, "state": "OH", "position": "LB", "longitude": -81.767}, {"city": "Atlanta", "latitude": 33.755, "state": "GA", "position": "LB", "longitude": -84.39}, {"city": "Overland Park", "latitude": 38.98222, "state": "KS", "position": "DE", "longitude": -94.67083}, {"city": "Western Springs", "latitude": 41.80556, "state": "IL", "position": "P", "longitude": -87.90111}, {"city": "Darien", "latitude": 41.74556, "state": "IL", "position": "DE", "longitude": -87.98111}, {"city": "Rahway", "latitude": 40.607153, "state": "NJ", "position": "DE", "longitude": -74.280531}, {"city": "Spring Grove", "latitude": 42.45111, "state": "IL", "position": "TE", "longitude": -88.2425}, {"city": "Hinsdale", "latitude": 41.80056, "state": "IL", "position": "LB", "longitude": -87.92806}, {"city": "Cypress", "latitude": 29.99472, "state": "TX", "position": "PK", "longitude": -95.6675}, {"city": "Lincoln", "latitude": 40.15, "state": "IL", "position": "S", "longitude": -89.3675}, {"city": "Mckeesport", "latitude": 40.34389, "state": "PA", "position": "LB", "longitude": -79.84889}, {"city": "Indianapolis", "latitude": 39.767, "state": "IN", "position": "OL", "longitude": -86.15}, {"city": "Frankfort", "latitude": 41.49806, "state": "IL", "position": "OL", "longitude": -87.84944}, {"city": "Eureka", "latitude": 38.50278, "state": "MO", "position": "LS", "longitude": -90.645}, {"city": "Toledo", "latitude": 41.66556, "state": "OH", "position": "OL", "longitude": -83.57528}, {"city": "Chicago", "latitude": 41.83694, "state": "IL", "position": "DL", "longitude": -87.68472}, {"city": "Champaign", "latitude": 40.115, "state": "IL", "position": "LS", "longitude": -88.27278}, {"city": "Galena", "latitude": 40.21528, "state": "OH", "position": "OL", "longitude": -82.88167}, {"city": "Elk Grove Village", "latitude": 42.00306, "state": "IL", "position": "OL", "longitude": -87.99639}, {"city": "Springfield", "latitude": 39.69833, "state": "IL", "position": "OL", "longitude": -89.61972}, {"city": "Oak Forest", "latitude": 41.6075, "state": "IL", "position": "DL", "longitude": -87.75056}, {"city": "Chula Vista", "latitude": 32.62778, "state": "CA", "position": "OL", "longitude": -117.04806}, {"city": "Uniontown", "latitude": 40.97639, "state": "OH", "position": "OL", "longitude": -81.40722}, {"city": "Coal City", "latitude": 41.27972, "state": "IL", "position": "OL", "longitude": -88.2775}, {"city": "Indianapolis", "latitude": 39.767, "state": "IN", "position": "OL", "longitude": -86.15}, {"city": "Frankfort", "latitude": 41.49806, "state": "IL", "position": "OL", "longitude": -87.84944}, {"city": "Mason", "latitude": 39.35806, "state": "OH", "position": "OL", "longitude": -84.31194}, {"city": "Jacksonville", "latitude": 39.73194, "state": "IL", "position": "OL", "longitude": -90.23444}, {"city": "Tinley Park", "latitude": 41.57389, "state": "IL", "position": "OL", "longitude": -87.80389}, {"city": "Sonoma", "latitude": 38.28889, "state": "CA", "position": "OL", "longitude": -122.45889}, {"city": "Lisle", "latitude": 41.7925, "state": "IL", "position": "OL", "longitude": -88.08833}, {"city": "Medina", "latitude": 41.13583, "state": "OH", "position": "OL", "longitude": -81.86417}, {"city": "Orlando", "latitude": 28.41583, "state": "FL", "position": "OL", "longitude": -81.29889}, {"city": "Penryn", "latitude": 38.85222, "state": "CA", "position": "OL", "longitude": -121.16944}, {"city": "Anaheim", "latitude": 33.83611, "state": "CA", "position": "TE", "longitude": -117.88972}, {"city": "Urbana", "latitude": 40.109665, "state": "IL", "position": "WR", "longitude": -88.204247}, {"city": "Olney", "latitude": 38.733, "state": "IL", "position": "WR", "longitude": -88.083}, {"city": "Peoria", "latitude": 40.72083, "state": "IL", "position": "DL", "longitude": -89.60944}, {"city": "Delray Beach", "latitude": 26.45917, "state": "FL", "position": "WR", "longitude": -80.08306}, {"city": "Kalamazoo", "latitude": 42.29, "state": "MI", "position": "TE", "longitude": -85.58583}, {"city": "Springfield", "latitude": 39.69833, "state": "IL", "position": "WR", "longitude": -89.61972}, {"city": "Marion", "latitude": 42.03778, "state": "IA", "position": "TE", "longitude": -91.75972}, {"city": "Plainsboro", "latitude": 40.338251, "state": "NJ", "position": "DL", "longitude": -74.581908}, {"city": "Groveport", "latitude": 39.85611, "state": "OH", "position": "DE", "longitude": -82.89056}, {"city": "Miami", "latitude": 25.77528, "state": "FL", "position": "DL", "longitude": -80.20889}, {"city": "Centerville", "latitude": 39.63861, "state": "OH", "position": "DL", "longitude": -84.14806}, {"city": "Lawrenceville", "latitude": 38.72556, "state": "IL", "position": "DL", "longitude": -87.68444}, {"city": "Plainfield", "latitude": 41.61722, "state": "IL", "position": "DL", "longitude": -88.20278}], "longitude": -88.272778}, {"mean": 316.99416795846804, "city": "East Lansing", "color": "#18453B", "latitude": 42.7348, "name": "Michigan State", "median": 181.5585010963558, "conference": "Big Ten", "state": "MI", "roster": [{"city": "Solon", "latitude": 41.383, "state": "OH", "position": "CB", "longitude": -81.45}, {"city": "Hubbard", "latitude": 41.15722, "state": "OH", "position": "RB", "longitude": -80.56917}, {"city": "Toledo", "latitude": 41.66556, "state": "OH", "position": "PK", "longitude": -83.57528}, {"city": "Detroit", "latitude": 42.33139, "state": "MI", "position": "DL", "longitude": -83.04583}, {"city": "Saginaw", "latitude": 43.41944, "state": "MI", "position": "WR", "longitude": -83.94944}, {"city": "North Ridgeville", "latitude": 41.38944, "state": "OH", "position": "LB", "longitude": -82.00472}, {"city": "Warren", "latitude": 41.23833, "state": "OH", "position": "S", "longitude": -80.81444}, {"city": "Frostproof", "latitude": 27.75, "state": "FL", "position": "CB", "longitude": -81.533}, {"city": "Erie", "latitude": 42.1295611, "state": "PA", "position": "QB", "longitude": -80.0852139}, {"city": "Jeannette", "latitude": 40.32889, "state": "PA", "position": "DB", "longitude": -79.61389}, {"city": "Lima", "latitude": 40.74083, "state": "OH", "position": "QB", "longitude": -84.115}, {"city": "Traverse City", "latitude": 44.76806, "state": "MI", "position": "PK", "longitude": -85.62222}, {"city": "Detroit", "latitude": 42.33139, "state": "MI", "position": "DL", "longitude": -83.04583}, {"city": "Monroeville", "latitude": 40.43111, "state": "PA", "position": "S", "longitude": -79.76528}, {"city": "Lincolnshire", "latitude": 42.19639, "state": "IL", "position": "S", "longitude": -87.91722}, {"city": "Gaithersburg", "latitude": 39.13194, "state": "MD", "position": "QB", "longitude": -77.22639}, {"city": "Southfield", "latitude": 42.47972, "state": "MI", "position": "TE", "longitude": -83.245}, {"city": "Beaver Dam", "latitude": 43.45972, "state": "WI", "position": "WR", "longitude": -88.83583}, {"city": "Lake Orion", "latitude": 42.78417, "state": "MI", "position": "WR", "longitude": -83.24556}, {"city": "Dayton", "latitude": 39.75944, "state": "OH", "position": "CB", "longitude": -84.19167}, {"city": "Kalamazoo", "latitude": 42.29, "state": "MI", "position": "S", "longitude": -85.58583}, {"city": "Phoenix", "latitude": 33.45, "state": "AZ", "position": "QB", "longitude": -112.067}, {"city": "Southfield", "latitude": 42.47972, "state": "MI", "position": "CB", "longitude": -83.245}, {"city": "Wyandotte", "latitude": 42.20861, "state": "MI", "position": "WR", "longitude": -83.1625}, {"city": "Farmington Hills", "latitude": 42.48528, "state": "MI", "position": "WR", "longitude": -83.37694}, {"city": "Farmington Hills", "latitude": 42.48528, "state": "MI", "position": "QB", "longitude": -83.37694}, {"city": "Cincinnati", "latitude": 39.1, "state": "OH", "position": "WR", "longitude": -84.517}, {"city": "Detroit", "latitude": 42.33139, "state": "MI", "position": "LB", "longitude": -83.04583}, {"city": "Hinckley", "latitude": 41.24194, "state": "OH", "position": "QB", "longitude": -81.73556}, {"city": "Richmond Hill", "latitude": 43.867, "state": "ON", "position": "LB", "longitude": -79.433}, {"city": "Mesquite", "latitude": 32.78278, "state": "TX", "position": "CB", "longitude": -96.61}, {"city": "Minneapolis", "latitude": 44.983, "state": "MN", "position": "WR", "longitude": -93.267}, {"city": "Dearborn", "latitude": 42.31444, "state": "MI", "position": "DB", "longitude": -83.21333}, {"city": "Okemos", "latitude": 42.717, "state": "MI", "position": "WR", "longitude": -84.433}, {"city": "Valparaiso", "latitude": 41.47611, "state": "IN", "position": "WR", "longitude": -87.05694}, {"city": "Erie", "latitude": 42.1295611, "state": "PA", "position": "RB", "longitude": -80.0852139}, {"city": "Upper Arlington", "latitude": 40.02056, "state": "OH", "position": "LB", "longitude": -83.06639}, {"city": "Flint", "latitude": 43.01, "state": "MI", "position": "RB", "longitude": -83.69}, {"city": "Waterville", "latitude": 41.50139, "state": "OH", "position": "P", "longitude": -83.72722}, {"city": "Houston", "latitude": 29.76278, "state": "TX", "position": "WR", "longitude": -95.38306}, {"city": "Dayton", "latitude": 39.75944, "state": "OH", "position": "S", "longitude": -84.19167}, {"city": "Springfield", "latitude": 38.78861, "state": "VA", "position": "WR", "longitude": -77.17944}, {"city": "Jackson", "latitude": 42.24417, "state": "MI", "position": "S", "longitude": -84.40722}, {"city": "North Ridgeville", "latitude": 41.38944, "state": "OH", "position": "DB", "longitude": -82.00472}, {"city": "Fort Lauderdale", "latitude": 26.133, "state": "FL", "position": "RB", "longitude": -80.15}, {"city": "Toledo", "latitude": 41.66556, "state": "OH", "position": "S", "longitude": -83.57528}, {"city": "Traverse City", "latitude": 44.76806, "state": "MI", "position": "LB", "longitude": -85.62222}, {"city": "Tampa", "latitude": 27.96806, "state": "FL", "position": "LB", "longitude": -82.47639}, {"city": "Chandler", "latitude": 33.3, "state": "AZ", "position": "DL", "longitude": -111.833}, {"city": "Snellville", "latitude": 33.85833, "state": "GA", "position": "RB", "longitude": -84.00639}, {"city": "Upper Arlington", "latitude": 40.02056, "state": "OH", "position": "WR", "longitude": -83.06639}, {"city": "Sterling Heights", "latitude": 42.57972, "state": "MI", "position": "LB", "longitude": -83.02806}, {"city": "Saginaw", "latitude": 43.41944, "state": "MI", "position": "WR", "longitude": -83.94944}, {"city": "Laguna Beach", "latitude": 33.53139, "state": "CA", "position": "LB", "longitude": -117.76917}, {"city": "Commerce Township", "latitude": 42.57944, "state": "MI", "position": "DB", "longitude": -83.48778}, {"city": "Ballston Spa", "latitude": 43.00722, "state": "NY", "position": "RB", "longitude": -73.85111}, {"city": "Windsor", "latitude": 42.283, "state": "ON", "position": "CB", "longitude": -83.0}, {"city": "Richmond", "latitude": 37.533, "state": "VA", "position": "WR", "longitude": -77.467}, {"city": "Lucasville", "latitude": 38.88028, "state": "OH", "position": "FB", "longitude": -82.99444}, {"city": "Traverse City", "latitude": 44.76806, "state": "MI", "position": "LB", "longitude": -85.62222}, {"city": "Canton", "latitude": 40.805, "state": "OH", "position": "CB", "longitude": -81.37583}, {"city": "Avon Lake", "latitude": 41.50167, "state": "OH", "position": "FB", "longitude": -82.00639}, {"city": "Thorofare", "latitude": 39.84222, "state": "NJ", "position": "DL", "longitude": -75.19639}, {"city": "Walled Lake", "latitude": 42.53778, "state": "MI", "position": "S", "longitude": -83.48111}, {"city": "Detroit", "latitude": 42.33139, "state": "MI", "position": "LB", "longitude": -83.04583}, {"city": "Georgetown", "latitude": 38.20972, "state": "KY", "position": "S", "longitude": -84.56}, {"city": "Silver Spring", "latitude": 39.00417, "state": "MD", "position": "LB", "longitude": -77.01889}, {"city": "Portland", "latitude": 45.52, "state": "OR", "position": "FB", "longitude": -122.68194}, {"city": "Rockford", "latitude": 43.12222, "state": "MI", "position": "LB", "longitude": -85.55889}, {"city": "Cincinnati", "latitude": 39.1, "state": "OH", "position": "LB", "longitude": -84.517}, {"city": "Commerce Township", "latitude": 42.57944, "state": "MI", "position": "LB", "longitude": -83.48778}, {"city": "Forsyth", "latitude": 33.035, "state": "GA", "position": "DE", "longitude": -83.93806}, {"city": "Detroit", "latitude": 42.33139, "state": "MI", "position": "OT", "longitude": -83.04583}, {"city": "Saline", "latitude": 42.17083, "state": "MI", "position": "LS", "longitude": -83.77972}, {"city": "Miami", "latitude": 25.77528, "state": "FL", "position": "OL", "longitude": -80.20889}, {"city": "Chicago", "latitude": 41.83694, "state": "IL", "position": "DL", "longitude": -87.68472}, {"city": "Canton", "latitude": 42.30861, "state": "MI", "position": "OL", "longitude": -83.48222}, {"city": "Plant City", "latitude": 28.017, "state": "FL", "position": "C", "longitude": -82.133}, {"city": "Clarkston", "latitude": 42.73361, "state": "MI", "position": "OT", "longitude": -83.41889}, {"city": "Clarkston", "latitude": 42.73361, "state": "MI", "position": "OT", "longitude": -83.41889}, {"city": "Cincinnati", "latitude": 39.1, "state": "OH", "position": "OT", "longitude": -84.517}, {"city": "Milford", "latitude": 41.32417, "state": "PA", "position": "G", "longitude": -74.80278}, {"city": "Hinsdale", "latitude": 41.80056, "state": "IL", "position": "OL", "longitude": -87.92806}, {"city": "Hinsdale", "latitude": 41.80056, "state": "IL", "position": "C", "longitude": -87.92806}, {"city": "Belding", "latitude": 43.09667, "state": "MI", "position": "OL", "longitude": -85.23056}, {"city": "White Lake", "latitude": 42.64778, "state": "MI", "position": "OL", "longitude": -83.49639}, {"city": "Houston", "latitude": 29.76278, "state": "TX", "position": "OL", "longitude": -95.38306}, {"city": "Saint Charles", "latitude": 41.913744, "state": "IL", "position": "OL", "longitude": -88.31085}, {"city": "Sun Prairie", "latitude": 43.1836028, "state": "WI", "position": "DT", "longitude": -89.2323361}, {"city": "Detroit", "latitude": 42.33139, "state": "MI", "position": "OL", "longitude": -83.04583}, {"city": "Plainwell", "latitude": 42.44333, "state": "MI", "position": "OT", "longitude": -85.64278}, {"city": "Centerville", "latitude": 39.63861, "state": "OH", "position": "G", "longitude": -84.14806}, {"city": "Cincinnati", "latitude": 39.1, "state": "OH", "position": "OL", "longitude": -84.517}, {"city": "Berrien Springs", "latitude": 41.9475, "state": "MI", "position": "OL", "longitude": -86.34028}, {"city": "Rockwood", "latitude": 42.07222, "state": "MI", "position": "OL", "longitude": -83.24444}, {"city": "Waukesha", "latitude": 43.01167, "state": "WI", "position": "TE", "longitude": -88.23167}, {"city": "Rochester", "latitude": 42.68056, "state": "MI", "position": "TE", "longitude": -83.13389}, {"city": "Greentown", "latitude": 40.47861, "state": "IN", "position": "TE", "longitude": -85.96472}, {"city": "Pittsburgh", "latitude": 40.43972, "state": "PA", "position": "TE", "longitude": -79.97639}, {"city": "Richmond", "latitude": 37.533, "state": "VA", "position": "WR", "longitude": -77.467}, {"city": "Snellville", "latitude": 33.85833, "state": "GA", "position": "WR", "longitude": -84.00639}, {"city": "West Lafayette", "latitude": 40.27389, "state": "OH", "position": "DE", "longitude": -81.75083}, {"city": "Fort Lauderdale", "latitude": 26.133, "state": "FL", "position": "WR", "longitude": -80.15}, {"city": "Lansing", "latitude": 42.73361, "state": "MI", "position": "WR", "longitude": -84.54667}, {"city": "Solon", "latitude": 41.383, "state": "OH", "position": "WR", "longitude": -81.45}, {"city": "Cincinnati", "latitude": 39.1, "state": "OH", "position": "WR", "longitude": -84.517}, {"city": "Middletown", "latitude": 40.407306, "state": "NJ", "position": "DE", "longitude": -74.071121}, {"city": "Columbus", "latitude": 39.983, "state": "OH", "position": "DE", "longitude": -82.983}, {"city": "Cincinnati", "latitude": 39.1, "state": "OH", "position": "DL", "longitude": -84.517}, {"city": "Muskegon", "latitude": 43.23417, "state": "MI", "position": "DL", "longitude": -86.24833}, {"city": "Stone Mountain", "latitude": 33.80528, "state": "GA", "position": "DE", "longitude": -84.17139}, {"city": "Macedonia", "latitude": 41.31778, "state": "OH", "position": "DE", "longitude": -81.50139}, {"city": "Commerce Township", "latitude": 42.57944, "state": "MI", "position": "TE", "longitude": -83.48778}, {"city": "Dowagiac", "latitude": 41.98444, "state": "MI", "position": "PK", "longitude": -86.10806}, {"city": "Milwaukee", "latitude": 43.05222, "state": "WI", "position": "DL", "longitude": -87.95583}, {"city": "Chicago", "latitude": 41.83694, "state": "IL", "position": "DE", "longitude": -87.68472}, {"city": "Chicago", "latitude": 41.83694, "state": "IL", "position": "DL", "longitude": -87.68472}], "longitude": -84.4808}, {"mean": 328.62849416572806, "city": "Bloomington", "color": "#7D110C", "latitude": 39.162222, "name": "Indiana", "median": 197.4749241454042, "conference": "Big Ten", "state": "IN", "roster": [{"city": "Oak Park", "latitude": 41.883, "state": "IL", "position": "WR", "longitude": -87.8}, {"city": "Lakeland", "latitude": 28.04111, "state": "FL", "position": "LB", "longitude": -81.95889}, {"city": "Indianapolis", "latitude": 39.767, "state": "IN", "position": "WR", "longitude": -86.15}, {"city": "Waldorf", "latitude": 38.64611, "state": "MD", "position": "DB", "longitude": -76.89833}, {"city": "Indianapolis", "latitude": 39.767, "state": "IN", "position": "DL", "longitude": -86.15}, {"city": "Chicago", "latitude": 41.83694, "state": "IL", "position": "LB", "longitude": -87.68472}, {"city": "Sarasota", "latitude": 27.33722, "state": "FL", "position": "WR", "longitude": -82.53528}, {"city": "Miami", "latitude": 25.77528, "state": "FL", "position": "RB", "longitude": -80.20889}, {"city": "Fishers", "latitude": 39.95611, "state": "IN", "position": "WR", "longitude": -86.01278}, {"city": "Columbia", "latitude": 39.20361, "state": "MD", "position": "RB", "longitude": -76.85694}, {"city": "Knoxville", "latitude": 35.97278, "state": "TN", "position": "WR", "longitude": -83.94222}, {"city": "Columbia", "latitude": 34.029778, "state": "SC", "position": "LB", "longitude": -80.896556}, {"city": "Wheaton", "latitude": 41.85611, "state": "IL", "position": "DB", "longitude": -88.10833}, {"city": "Fort Wayne", "latitude": 41.08056, "state": "IN", "position": "DB", "longitude": -85.13917}, {"city": "Lithonia", "latitude": 33.71278, "state": "GA", "position": "CB", "longitude": -84.10583}, {"city": "Modesto", "latitude": 37.66139, "state": "CA", "position": "QB", "longitude": -120.99444}, {"city": "Gardendale", "latitude": 33.66056, "state": "AL", "position": "RB", "longitude": -86.81167}, {"city": "Cincinnati", "latitude": 39.1, "state": "OH", "position": "LB", "longitude": -84.517}, {"city": "Indianapolis", "latitude": 39.767, "state": "IN", "position": "DB", "longitude": -86.15}, {"city": "Naperville", "latitude": 41.74806, "state": "IL", "position": "QB", "longitude": -88.16556}, {"city": "Largo", "latitude": 27.90917, "state": "FL", "position": "DB", "longitude": -82.7875}, {"city": "Largo", "latitude": 27.90917, "state": "FL", "position": "WR", "longitude": -82.7875}, {"city": "Los Angeles", "latitude": 34.05, "state": "CA", "position": "QB", "longitude": -118.25}, {"city": "Lynn Haven", "latitude": 30.23972, "state": "FL", "position": "LB", "longitude": -85.64806}, {"city": "Carmel", "latitude": 39.967, "state": "IN", "position": "RB", "longitude": -86.1}, {"city": "Decatur", "latitude": 33.77139, "state": "GA", "position": "DB", "longitude": -84.29778}, {"city": "Columbus", "latitude": 32.49222, "state": "GA", "position": "WR", "longitude": -84.94028}, {"city": "Lake Mary", "latitude": 28.7575, "state": "FL", "position": "WR", "longitude": -81.32917}, {"city": "Atlanta", "latitude": 33.755, "state": "GA", "position": "DB", "longitude": -84.39}, {"city": "Alpharetta", "latitude": 34.07333, "state": "GA", "position": "QB", "longitude": -84.28111}, {"city": "Fort Wayne", "latitude": 41.08056, "state": "IN", "position": "WR", "longitude": -85.13917}, {"city": "Baton Rouge", "latitude": 30.44861, "state": "LA", "position": "QB", "longitude": -91.12583}, {"city": "Flowery Branch", "latitude": 34.18583, "state": "GA", "position": "DB", "longitude": -83.92444}, {"city": "Tallahassee", "latitude": 30.455, "state": "FL", "position": "DB", "longitude": -84.25333}, {"city": "Missouri City", "latitude": 29.58278, "state": "TX", "position": "DB", "longitude": -95.53944}, {"city": "Bloomington", "latitude": 39.16222, "state": "IN", "position": "DB", "longitude": -86.52917}, {"city": "Columbus", "latitude": 39.21389, "state": "IN", "position": "RB", "longitude": -85.91111}, {"city": "Indianapolis", "latitude": 39.767, "state": "IN", "position": "RB", "longitude": -86.15}, {"city": "Carmel", "latitude": 39.967, "state": "IN", "position": "WR", "longitude": -86.1}, {"city": "Woodbridge", "latitude": 38.64361, "state": "VA", "position": "QB", "longitude": -77.26083}, {"city": "Greenwood", "latitude": 39.61139, "state": "IN", "position": "DB", "longitude": -86.11806}, {"city": "Columbus", "latitude": 32.49222, "state": "GA", "position": "DB", "longitude": -84.94028}, {"city": "Washington", "latitude": 38.90472, "state": "DC", "position": "DB", "longitude": -77.01639}, {"city": "Indianapolis", "latitude": 39.767, "state": "IN", "position": "RB", "longitude": -86.15}, {"city": "Vero Beach", "latitude": 27.65, "state": "FL", "position": "DB", "longitude": -80.383}, {"city": "Brownsburg", "latitude": 39.84194, "state": "IN", "position": "DB", "longitude": -86.39556}, {"city": "Chesterfield", "latitude": 38.65333, "state": "MO", "position": "WR", "longitude": -90.55417}, {"city": "Terre Haute", "latitude": 39.46972, "state": "IN", "position": "RB", "longitude": -87.38972}, {"city": "Coshocton", "latitude": 40.26778, "state": "OH", "position": "LB", "longitude": -81.85667}, {"city": "Youngstown", "latitude": 41.1, "state": "OH", "position": "RB", "longitude": -80.65}, {"city": "Oak Park", "latitude": 41.883, "state": "IL", "position": "LB", "longitude": -87.8}, {"city": "Indianapolis", "latitude": 39.767, "state": "IN", "position": "P", "longitude": -86.15}, {"city": "New Palestine", "latitude": 39.7225, "state": "IN", "position": "LB", "longitude": -85.88972}, {"city": "Indianapolis", "latitude": 39.767, "state": "IN", "position": "WR", "longitude": -86.15}, {"city": "Zionsville", "latitude": 39.95306, "state": "IN", "position": "WR", "longitude": -86.26944}, {"city": "Canton", "latitude": 42.30861, "state": "MI", "position": "LB", "longitude": -83.48222}, {"city": "Lisle", "latitude": 41.7925, "state": "IL", "position": "WR", "longitude": -88.08833}, {"city": "Punta Gorda", "latitude": 26.91583, "state": "FL", "position": "LB", "longitude": -82.04778}, {"city": "New Palestine", "latitude": 39.7225, "state": "IN", "position": "LS", "longitude": -85.88972}, {"city": "Cleveland", "latitude": 41.48222, "state": "OH", "position": "LB", "longitude": -81.66972}, {"city": "Hamilton", "latitude": 39.39583, "state": "OH", "position": "LB", "longitude": -84.565}, {"city": "South Bend", "latitude": 41.6725, "state": "IN", "position": "LB", "longitude": -86.25528}, {"city": "Fort Wayne", "latitude": 41.08056, "state": "IN", "position": "LB", "longitude": -85.13917}, {"city": "Terre Haute", "latitude": 39.46972, "state": "IN", "position": "LB", "longitude": -87.38972}, {"city": "Crete", "latitude": 41.45583, "state": "IL", "position": "LB", "longitude": -87.61889}, {"city": "Longwood", "latitude": 28.70194, "state": "FL", "position": "LB", "longitude": -81.345}, {"city": "Columbus", "latitude": 39.21389, "state": "IN", "position": "OL", "longitude": -85.91111}, {"city": "Cincinnati", "latitude": 39.1, "state": "OH", "position": "DL", "longitude": -84.517}, {"city": "Sarasota", "latitude": 27.33722, "state": "FL", "position": "LB", "longitude": -82.53528}, {"city": "Terre Haute", "latitude": 39.46972, "state": "IN", "position": "DL", "longitude": -87.38972}, {"city": "Carmel", "latitude": 39.967, "state": "IN", "position": "DL", "longitude": -86.1}, {"city": "Cleveland", "latitude": 41.48222, "state": "OH", "position": "DT", "longitude": -81.66972}, {"city": "Peoria", "latitude": 40.72083, "state": "IL", "position": "DL", "longitude": -89.60944}, {"city": "Indianapolis", "latitude": 39.767, "state": "IN", "position": "OL", "longitude": -86.15}, {"city": "Indianapolis", "latitude": 39.767, "state": "IN", "position": "LB", "longitude": -86.15}, {"city": "Aurora", "latitude": 41.31917, "state": "OH", "position": "DL", "longitude": -81.35583}, {"city": "Roswell", "latitude": 34.03389, "state": "GA", "position": "OL", "longitude": -84.34417}, {"city": "Noblesville", "latitude": 40.05, "state": "IN", "position": "OL", "longitude": -86.02139}, {"city": "South Bend", "latitude": 41.6725, "state": "IN", "position": "OL", "longitude": -86.25528}, {"city": "Indianapolis", "latitude": 39.767, "state": "IN", "position": "OL", "longitude": -86.15}, {"city": "Orland Park", "latitude": 41.60722, "state": "IL", "position": "LS", "longitude": -87.86167}, {"city": "Orland Park", "latitude": 41.60722, "state": "IL", "position": "OL", "longitude": -87.86167}, {"city": "Powell", "latitude": 40.15833, "state": "OH", "position": "OL", "longitude": -83.07417}, {"city": "Carmel", "latitude": 39.967, "state": "IN", "position": "OL", "longitude": -86.1}, {"city": "Ocala", "latitude": 29.18778, "state": "FL", "position": "OL", "longitude": -82.13056}, {"city": "Hamilton", "latitude": 39.39583, "state": "OH", "position": "OL", "longitude": -84.565}, {"city": "Solon", "latitude": 41.383, "state": "OH", "position": "DL", "longitude": -81.45}, {"city": "Avon", "latitude": 39.76306, "state": "IN", "position": "OL", "longitude": -86.38778}, {"city": "West Milton", "latitude": 39.95639, "state": "OH", "position": "OL", "longitude": -84.32944}, {"city": "Houston", "latitude": 29.76278, "state": "TX", "position": "OL", "longitude": -95.38306}, {"city": "Elkhart", "latitude": 41.68306, "state": "IN", "position": "OL", "longitude": -85.96889}, {"city": "Lombard", "latitude": 41.87611, "state": "IL", "position": "WR", "longitude": -88.015}, {"city": "Queens", "latitude": 40.75, "state": "NY", "position": "TE", "longitude": -73.867}, {"city": "Southlake", "latitude": 32.94667, "state": "TX", "position": "WR", "longitude": -97.14528}, {"city": "Shadyside", "latitude": 39.97139, "state": "OH", "position": "TE", "longitude": -80.75083}, {"city": "Morris", "latitude": 41.37528, "state": "IL", "position": "TE", "longitude": -88.42806}, {"city": "The Woodlands", "latitude": 30.1775, "state": "TX", "position": "TE", "longitude": -95.50389}, {"city": "Columbus", "latitude": 39.21389, "state": "IN", "position": "P", "longitude": -85.91111}, {"city": "Richmond", "latitude": 39.83028, "state": "IN", "position": "WR", "longitude": -84.89056}, {"city": "Carmel", "latitude": 39.967, "state": "IN", "position": "WR", "longitude": -86.1}, {"city": "Indianapolis", "latitude": 39.767, "state": "IN", "position": "TE", "longitude": -86.15}, {"city": "Lafayette", "latitude": 40.41722, "state": "IN", "position": "PK", "longitude": -86.87861}, {"city": "Avon", "latitude": 39.76306, "state": "IN", "position": "DL", "longitude": -86.38778}, {"city": "Hobart", "latitude": 41.52861, "state": "IN", "position": "PK", "longitude": -87.2675}, {"city": "Westfield", "latitude": 40.03222, "state": "IN", "position": "DL", "longitude": -86.12889}, {"city": "Greenwood", "latitude": 39.61139, "state": "IN", "position": "PK", "longitude": -86.11806}, {"city": "Wheaton", "latitude": 41.85611, "state": "IL", "position": "P", "longitude": -88.10833}, {"city": "SAN ANTONIO", "latitude": 29.417, "state": "TX", "position": "DL", "longitude": -98.5}, {"city": "Milton", "latitude": 34.1321631, "state": "GA", "position": "TE", "longitude": -84.300666}, {"city": "Winter Garden", "latitude": 28.56028, "state": "FL", "position": "LB", "longitude": -81.58417}, {"city": "Sparta", "latitude": 33.283, "state": "GA", "position": "DL", "longitude": -82.967}, {"city": "Ottawa", "latitude": 41.02083, "state": "OH", "position": "LS", "longitude": -84.04139}, {"city": "Indianapolis", "latitude": 39.767, "state": "IN", "position": "DL", "longitude": -86.15}, {"city": "Largo", "latitude": 27.90917, "state": "FL", "position": "DL", "longitude": -82.7875}], "longitude": -86.529167}, {"mean": 497.88061809052556, "city": "West Lafayette", "color": "#2C2A29", "latitude": 40.441944, "name": "Purdue", "median": 465.9458450223591, "conference": "Big Ten", "state": "IN", "roster": [{"city": "Fairburn", "latitude": 33.5625, "state": "GA", "position": "RB", "longitude": -84.58139}, {"city": "Phenix City", "latitude": 32.47083, "state": "AL", "position": "TE", "longitude": -85.00278}, {"city": "Miami", "latitude": 25.77528, "state": "FL", "position": "CB", "longitude": -80.20889}, {"city": "Princeton", "latitude": 37.10778, "state": "KY", "position": "QB", "longitude": -87.8825}, {"city": "Miami", "latitude": 25.77528, "state": "FL", "position": "S", "longitude": -80.20889}, {"city": "Miami", "latitude": 25.77528, "state": "FL", "position": "WR", "longitude": -80.20889}, {"city": "Glenarden", "latitude": 38.93194, "state": "MD", "position": "LB", "longitude": -76.86167}, {"city": "Boca Raton", "latitude": 26.36861, "state": "FL", "position": "RB", "longitude": -80.1}, {"city": "Tallahassee", "latitude": 30.455, "state": "FL", "position": "S", "longitude": -84.25333}, {"city": "Los Angeles", "latitude": 34.05, "state": "CA", "position": "WR", "longitude": -118.25}, {"city": "Buford", "latitude": 34.11694, "state": "GA", "position": "CB", "longitude": -83.99861}, {"city": "Arlington", "latitude": 32.705, "state": "TX", "position": "WR", "longitude": -97.12278}, {"city": "Chicago", "latitude": 41.83694, "state": "IL", "position": "S", "longitude": -87.68472}, {"city": "Atlanta", "latitude": 33.755, "state": "GA", "position": "WR", "longitude": -84.39}, {"city": "Clarkston", "latitude": 42.73361, "state": "MI", "position": "S", "longitude": -83.41889}, {"city": "Columbus", "latitude": 39.21389, "state": "IN", "position": "RB", "longitude": -85.91111}, {"city": "Tampa", "latitude": 27.96806, "state": "FL", "position": "CB", "longitude": -82.47639}, {"city": "West Palm Beach", "latitude": 26.70972, "state": "FL", "position": "TE", "longitude": -80.06417}, {"city": "Newhall", "latitude": 34.38389, "state": "CA", "position": "CB", "longitude": -118.53056}, {"city": "Carrollton", "latitude": 32.99, "state": "TX", "position": "QB", "longitude": -96.89333}, {"city": "Canton", "latitude": 40.805, "state": "OH", "position": "DE", "longitude": -81.37583}, {"city": "North Canton", "latitude": 40.875, "state": "OH", "position": "QB", "longitude": -81.40111}, {"city": "Schererville", "latitude": 41.48917, "state": "IN", "position": "DE", "longitude": -87.44306}, {"city": "Asbury Park", "latitude": 40.222884, "state": "NJ", "position": "DT", "longitude": -74.010232}, {"city": "Southlake", "latitude": 32.94667, "state": "TX", "position": "S", "longitude": -97.14528}, {"city": "Mesquite", "latitude": 32.78278, "state": "TX", "position": "WR", "longitude": -96.61}, {"city": "Dallas", "latitude": 32.77583, "state": "TX", "position": "CB", "longitude": -96.79667}, {"city": "Tallahassee", "latitude": 30.455, "state": "FL", "position": "LB", "longitude": -84.25333}, {"city": "Boutte", "latitude": 29.90111, "state": "LA", "position": "DT", "longitude": -90.38639}, {"city": "Boca Raton", "latitude": 26.36861, "state": "FL", "position": "WR", "longitude": -80.1}, {"city": "Pontiac", "latitude": 42.64611, "state": "MI", "position": "DT", "longitude": -83.2925}, {"city": "Indianapolis", "latitude": 39.767, "state": "IN", "position": "QB", "longitude": -86.15}, {"city": "Indianapolis", "latitude": 39.767, "state": "IN", "position": "WR", "longitude": -86.15}, {"city": "Columbus", "latitude": 39.983, "state": "OH", "position": "LB", "longitude": -82.983}, {"city": "Lithonia", "latitude": 33.71278, "state": "GA", "position": "WR", "longitude": -84.10583}, {"city": "Temple Hills", "latitude": 38.81056, "state": "MD", "position": "CB", "longitude": -76.94639}, {"city": "Columbus", "latitude": 39.983, "state": "OH", "position": "LB", "longitude": -82.983}, {"city": "Lakeland", "latitude": 28.04111, "state": "FL", "position": "LB", "longitude": -81.95889}, {"city": "Mcdonough", "latitude": 33.445, "state": "GA", "position": "RB", "longitude": -84.14917}, {"city": "Tampa", "latitude": 27.96806, "state": "FL", "position": "CB", "longitude": -82.47639}, {"city": "Fort Wayne", "latitude": 41.08056, "state": "IN", "position": "CB", "longitude": -85.13917}, {"city": "Sugar Hill", "latitude": 34.10222, "state": "GA", "position": "RB", "longitude": -84.04417}, {"city": "Crown Point", "latitude": 41.42167, "state": "IN", "position": "CB", "longitude": -87.35611}, {"city": "Fort Wayne", "latitude": 41.08056, "state": "IN", "position": "S", "longitude": -85.13917}, {"city": "Schererville", "latitude": 41.48917, "state": "IN", "position": "RB", "longitude": -87.44306}, {"city": "Carmel", "latitude": 39.967, "state": "IN", "position": "LB", "longitude": -86.1}, {"city": "Maidens", "latitude": 37.66917, "state": "VA", "position": "PK", "longitude": -77.88194}, {"city": "Indianapolis", "latitude": 39.767, "state": "IN", "position": "PK", "longitude": -86.15}, {"city": "Indianapolis", "latitude": 39.767, "state": "IN", "position": "LB", "longitude": -86.15}, {"city": "West Lafayette", "latitude": 40.44194, "state": "IN", "position": "WR", "longitude": -86.9125}, {"city": "Casper", "latitude": 42.83472, "state": "WY", "position": "CB", "longitude": -106.325}, {"city": "Lithonia", "latitude": 33.71278, "state": "GA", "position": "LB", "longitude": -84.10583}, {"city": "Cleveland", "latitude": 41.48222, "state": "OH", "position": "RB", "longitude": -81.66972}, {"city": "Charlotte", "latitude": 35.22694, "state": "NC", "position": "PK", "longitude": -80.84333}, {"city": "North Aurora", "latitude": 41.80944, "state": "IL", "position": "PK", "longitude": -88.32944}, {"city": "Tallahassee", "latitude": 30.455, "state": "FL", "position": "LB", "longitude": -84.25333}, {"city": "Noblesville", "latitude": 40.05, "state": "IN", "position": "S", "longitude": -86.02139}, {"city": "Miami", "latitude": 25.77528, "state": "FL", "position": "LB", "longitude": -80.20889}, {"city": "Cincinnati", "latitude": 39.1, "state": "OH", "position": "PK", "longitude": -84.517}, {"city": "Carmel", "latitude": 39.967, "state": "IN", "position": "CB", "longitude": -86.1}, {"city": "Knox", "latitude": 41.29417, "state": "IN", "position": "TE", "longitude": -86.6225}, {"city": "Simi Valley", "latitude": 34.27111, "state": "CA", "position": "DE", "longitude": -118.73944}, {"city": "Wheaton", "latitude": 41.85611, "state": "IL", "position": "LS", "longitude": -88.10833}, {"city": "Westminster", "latitude": 39.57667, "state": "MD", "position": "S", "longitude": -77.0}, {"city": "Danville", "latitude": 37.82167, "state": "CA", "position": "PK", "longitude": -122.0}, {"city": "Ocala", "latitude": 29.18778, "state": "FL", "position": "DT", "longitude": -82.13056}, {"city": "Dearborn", "latitude": 42.31444, "state": "MI", "position": "OL", "longitude": -83.21333}, {"city": "Champaign", "latitude": 40.115, "state": "IL", "position": "DE", "longitude": -88.27278}, {"city": "Chicago", "latitude": 41.83694, "state": "IL", "position": "DT", "longitude": -87.68472}, {"city": "Mishawaka", "latitude": 41.6675, "state": "IN", "position": "G", "longitude": -86.17139}, {"city": "Centerville", "latitude": 39.63861, "state": "OH", "position": "DT", "longitude": -84.14806}, {"city": "Atascadero", "latitude": 35.48417, "state": "CA", "position": "DE", "longitude": -120.6725}, {"city": "Los Fresnos", "latitude": 26.07333, "state": "TX", "position": "OL", "longitude": -97.47806}, {"city": "Owings Mills", "latitude": 39.41222, "state": "MD", "position": "LB", "longitude": -76.79306}, {"city": "Pittsburgh", "latitude": 40.43972, "state": "PA", "position": "C", "longitude": -79.97639}, {"city": "Indianapolis", "latitude": 39.767, "state": "IN", "position": "DT", "longitude": -86.15}, {"city": "Munster", "latitude": 41.55139, "state": "IN", "position": "OL", "longitude": -87.50139}, {"city": "Montrose", "latitude": 43.17806, "state": "MI", "position": "OL", "longitude": -83.89389}, {"city": "Osceola", "latitude": 41.66361, "state": "IN", "position": "LS", "longitude": -86.07528}, {"city": "College Station", "latitude": 30.60139, "state": "TX", "position": "OT", "longitude": -96.31444}, {"city": "West Lafayette", "latitude": 40.44194, "state": "IN", "position": "OL", "longitude": -86.9125}, {"city": "Valparaiso", "latitude": 41.47611, "state": "IN", "position": "LS", "longitude": -87.05694}, {"city": "Celina", "latitude": 33.31972, "state": "TX", "position": "G", "longitude": -96.78278}, {"city": "Birmingham", "latitude": 33.65333, "state": "AL", "position": "OL", "longitude": -86.80889}, {"city": "Little Rock", "latitude": 34.73611, "state": "AR", "position": "G", "longitude": -92.33111}, {"city": "Southlake", "latitude": 32.94667, "state": "TX", "position": "OT", "longitude": -97.14528}, {"city": "Columbus", "latitude": 39.983, "state": "OH", "position": "OL", "longitude": -82.983}, {"city": "Louisville", "latitude": 38.25, "state": "KY", "position": "OL", "longitude": -85.767}, {"city": "Fishers", "latitude": 39.95611, "state": "IN", "position": "OL", "longitude": -86.01278}, {"city": "Miami", "latitude": 25.77528, "state": "FL", "position": "WR", "longitude": -80.20889}, {"city": "Westlake Village", "latitude": 34.14194, "state": "CA", "position": "WR", "longitude": -118.81944}, {"city": "Fort Wayne", "latitude": 41.08056, "state": "IN", "position": "WR", "longitude": -85.13917}, {"city": "Natick", "latitude": 42.28333, "state": "MA", "position": "WR", "longitude": -71.35}, {"city": "Indianapolis", "latitude": 39.767, "state": "IN", "position": "WR", "longitude": -86.15}, {"city": "Hialeah", "latitude": 25.86056, "state": "FL", "position": "TE", "longitude": -80.29389}, {"city": "Arlington", "latitude": 32.705, "state": "TX", "position": "TE", "longitude": -97.12278}, {"city": "Crown Point", "latitude": 41.42167, "state": "IN", "position": "TE", "longitude": -87.35611}, {"city": "Zionsville", "latitude": 39.95306, "state": "IN", "position": "WR", "longitude": -86.26944}, {"city": "Leesburg", "latitude": 39.117, "state": "VA", "position": "TE", "longitude": -77.55}, {"city": "Nashville", "latitude": 36.16667, "state": "TN", "position": "TE", "longitude": -86.78333}, {"city": "Western Springs", "latitude": 41.80556, "state": "IL", "position": "DT", "longitude": -87.90111}, {"city": "Mooresville", "latitude": 35.58444, "state": "NC", "position": "DE", "longitude": -80.82028}, {"city": "Ellicott City", "latitude": 39.26806, "state": "MD", "position": "DT", "longitude": -76.79889}, {"city": "Lagrange", "latitude": 41.80806, "state": "IL", "position": "LS", "longitude": -87.87333}, {"city": "New Lenox", "latitude": 41.508251, "state": "IL", "position": "DE", "longitude": -87.970597}, {"city": "Carmel", "latitude": 39.967, "state": "IN", "position": "P", "longitude": -86.1}, {"city": "Flossmoor", "latitude": 41.54167, "state": "IL", "position": "DT", "longitude": -87.685}, {"city": "Greenwood", "latitude": 39.61139, "state": "IN", "position": "DE", "longitude": -86.11806}], "longitude": -86.9125}, {"mean": 497.3258542452457, "city": "Minneapolis-St. Paul", "color": "#7A0019", "latitude": 44.983333, "name": "Minnesota", "median": 345.32077522858845, "conference": "Big Ten", "state": "MN", "roster": [{"city": "Cleveland Heights", "latitude": 41.50972, "state": "OH", "position": "LB", "longitude": -81.56333}, {"city": "Mobile", "latitude": 38.55556, "state": "AL", "position": "WR", "longitude": -121.46889}, {"city": "Cincinnati", "latitude": 39.1, "state": "OH", "position": "WR", "longitude": -84.517}, {"city": "Detroit", "latitude": 42.33139, "state": "MI", "position": "DB", "longitude": -83.04583}, {"city": "Webb City", "latitude": 37.14444, "state": "MO", "position": "DB", "longitude": -94.46917}, {"city": "Blaine", "latitude": 45.16083, "state": "MN", "position": "DB", "longitude": -93.23472}, {"city": "Bloomingdale", "latitude": 32.12417, "state": "GA", "position": "DB", "longitude": -81.30722}, {"city": "Iowa City", "latitude": 41.667, "state": "IA", "position": "DB", "longitude": -91.533}, {"city": "Lakeville", "latitude": 44.64972, "state": "MN", "position": "QB", "longitude": -93.2425}, {"city": "Pensacola", "latitude": 30.433, "state": "FL", "position": "DB", "longitude": -87.2}, {"city": "Decatur", "latitude": 33.77139, "state": "GA", "position": "DB", "longitude": -84.29778}, {"city": "Lakeland", "latitude": 28.04111, "state": "FL", "position": "WR", "longitude": -81.95889}, {"city": "Columbia", "latitude": 38.95139, "state": "MO", "position": "DL", "longitude": -92.32833}, {"city": "Rockford", "latitude": 42.25944, "state": "IL", "position": "QB", "longitude": -89.06444}, {"city": "Cleveland", "latitude": 41.48222, "state": "OH", "position": "DB", "longitude": -81.66972}, {"city": "Okoboji", "latitude": 43.3875, "state": "IA", "position": "LB", "longitude": -95.13806}, {"city": "Lafayette", "latitude": 30.217, "state": "LA", "position": "WR", "longitude": -92.033}, {"city": "Jonesboro", "latitude": 33.52444, "state": "GA", "position": "LB", "longitude": -84.35417}, {"city": "Geismar", "latitude": 30.204, "state": "LA", "position": "DB", "longitude": -91.022}, {"city": "Crystal Lake", "latitude": 42.22639, "state": "IL", "position": "QB", "longitude": -88.33556}, {"city": "Aurora", "latitude": 41.76389, "state": "IL", "position": "WR", "longitude": -88.29}, {"city": "Eagan", "latitude": 44.81778, "state": "MN", "position": "QB", "longitude": -93.16694}, {"city": "Mansfield", "latitude": 32.57722, "state": "TX", "position": "LB", "longitude": -97.12667}, {"city": "Minneapolis", "latitude": 44.983, "state": "MN", "position": "WR", "longitude": -93.267}, {"city": "Miami", "latitude": 25.77528, "state": "FL", "position": "DB", "longitude": -80.20889}, {"city": "Bolingbrook", "latitude": 41.69861, "state": "IL", "position": "DB", "longitude": -88.08861}, {"city": "Roseville", "latitude": 45.01417, "state": "MN", "position": "QB", "longitude": -93.15306}, {"city": "Pace", "latitude": 30.5992, "state": "FL", "position": "PK", "longitude": -87.1614}, {"city": "Chanhassen", "latitude": 44.86222, "state": "MN", "position": "LB", "longitude": -93.53056}, {"city": "La Crescent", "latitude": 43.82667, "state": "MN", "position": "WR", "longitude": -91.305}, {"city": "Cannon Falls", "latitude": 44.51028, "state": "MN", "position": "LB", "longitude": -92.90444}, {"city": "Mobile", "latitude": 38.55556, "state": "AL", "position": "DT", "longitude": -121.46889}, {"city": "Bolingbrook", "latitude": 41.69861, "state": "IL", "position": "LB", "longitude": -88.08861}, {"city": "Walnut Creek", "latitude": 37.90639, "state": "CA", "position": "WR", "longitude": -122.065}, {"city": "Ashburn", "latitude": 39.04361, "state": "VA", "position": "WR", "longitude": -77.4875}, {"city": "Medina", "latitude": 45.04472, "state": "MN", "position": "WR", "longitude": -93.57306}, {"city": "Edwardsville", "latitude": 38.80389, "state": "IL", "position": "DB", "longitude": -89.95833}, {"city": "Wellington", "latitude": 26.655, "state": "FL", "position": "WR", "longitude": -80.25417}, {"city": "Jonesboro", "latitude": 33.52444, "state": "GA", "position": "RB", "longitude": -84.35417}, {"city": "Detroit", "latitude": 42.33139, "state": "MI", "position": "DB", "longitude": -83.04583}, {"city": "Perham", "latitude": 46.595, "state": "MN", "position": "LS", "longitude": -95.57389}, {"city": "Fort Myers", "latitude": 26.617, "state": "FL", "position": "LB", "longitude": -81.833}, {"city": "Milwaukee", "latitude": 43.05222, "state": "WI", "position": "WR", "longitude": -87.95583}, {"city": "Atlanta", "latitude": 33.755, "state": "GA", "position": "RB", "longitude": -84.39}, {"city": "Fargo", "latitude": 46.87722, "state": "ND", "position": "RB", "longitude": -96.78944}, {"city": "Vaughan", "latitude": 43.833, "state": "ON", "position": "RB", "longitude": -79.5}, {"city": "Theodore", "latitude": 30.55056, "state": "AL", "position": "TE", "longitude": -88.18083}, {"city": "Wilmington", "latitude": 39.74583, "state": "DE", "position": "DB", "longitude": -75.54667}, {"city": "Germantown", "latitude": 43.22306, "state": "WI", "position": "WR", "longitude": -88.12028}, {"city": "Plymouth", "latitude": 45.01056, "state": "MN", "position": "LB", "longitude": -93.45556}, {"city": "Milwaukee", "latitude": 43.05222, "state": "WI", "position": "DB", "longitude": -87.95583}, {"city": "Chelsea", "latitude": 42.31806, "state": "MI", "position": "RB", "longitude": -84.02056}, {"city": "Downers Grove", "latitude": 41.79472, "state": "IL", "position": "PK", "longitude": -88.01694}, {"city": "Hunting Valley", "latitude": 41.47611, "state": "OH", "position": "DB", "longitude": -81.40111}, {"city": "Brainerd", "latitude": 46.35806, "state": "MN", "position": "P", "longitude": -94.20083}, {"city": "Roselle", "latitude": 41.98056, "state": "IL", "position": "DB", "longitude": -88.08556}, {"city": "Copperas Cove", "latitude": 31.11972, "state": "TX", "position": "LB", "longitude": -97.90167}, {"city": "Lewisville", "latitude": 33.03833, "state": "TX", "position": "RB", "longitude": -97.00611}, {"city": "Eden Prairie", "latitude": 44.85472, "state": "MN", "position": "DB", "longitude": -93.47083}, {"city": "Green Bay", "latitude": 44.51333, "state": "WI", "position": "P", "longitude": -88.01583}, {"city": "Green Bay", "latitude": 44.51333, "state": "WI", "position": "PK", "longitude": -88.01583}, {"city": "Cedar Falls", "latitude": 42.52352, "state": "IA", "position": "LS", "longitude": -92.446402}, {"city": "Phoenix", "latitude": 33.45, "state": "AZ", "position": "LS", "longitude": -112.067}, {"city": "Plainfield", "latitude": 41.61722, "state": "IL", "position": "DB", "longitude": -88.20278}, {"city": "Downs", "latitude": 39.50333, "state": "KS", "position": "FB", "longitude": -98.54361}, {"city": "Phillipsburg", "latitude": 39.75528, "state": "KS", "position": "PK", "longitude": -99.32222}, {"city": "Andover", "latitude": 45.23333, "state": "MN", "position": "FB", "longitude": -93.29139}, {"city": "Kansas City", "latitude": 39.10667, "state": "KS", "position": "TE", "longitude": -94.67639}, {"city": "Rochester", "latitude": 44.0234, "state": "MN", "position": "RB", "longitude": -92.46295}, {"city": "Prior Lake", "latitude": 44.71333, "state": "MN", "position": "TE", "longitude": -93.42278}, {"city": "Baltimore", "latitude": 39.283, "state": "MD", "position": "DL", "longitude": -76.617}, {"city": "Battle Creek", "latitude": 42.31222, "state": "MI", "position": "P", "longitude": -85.20417}, {"city": "Prior Lake", "latitude": 44.71333, "state": "MN", "position": "LB", "longitude": -93.42278}, {"city": "Grand Rapids", "latitude": 42.96125, "state": "MI", "position": "TE", "longitude": -85.6557194}, {"city": "Lake Zurich", "latitude": 42.19222, "state": "IL", "position": "LB", "longitude": -88.08806}, {"city": "Fort Walton Beach", "latitude": 30.42028, "state": "FL", "position": "DL", "longitude": -86.61667}, {"city": "Brookfield", "latitude": 43.05806, "state": "WI", "position": "OL", "longitude": -88.11472}, {"city": "Homestead", "latitude": 25.4711889, "state": "FL", "position": "DL", "longitude": -80.4681222}, {"city": "Van Alstyne", "latitude": 33.42389, "state": "TX", "position": "OL", "longitude": -96.57861}, {"city": "Edina", "latitude": 44.89556, "state": "MN", "position": "LB", "longitude": -93.35472}, {"city": "Hopkins", "latitude": 44.9307694, "state": "MN", "position": "LB", "longitude": -93.4016917}, {"city": "Springfield", "latitude": 39.69833, "state": "IL", "position": "OL", "longitude": -89.61972}, {"city": "Loxahatchee", "latitude": 26.410106, "state": "FL", "position": "LB", "longitude": -80.164794}, {"city": "Lakeville", "latitude": 44.64972, "state": "MN", "position": "OL", "longitude": -93.2425}, {"city": "Chaska", "latitude": 44.783, "state": "MN", "position": "OL", "longitude": -93.6}, {"city": "Dayton", "latitude": 39.75944, "state": "OH", "position": "OL", "longitude": -84.19167}, {"city": "Minnetonka", "latitude": 44.91333, "state": "MN", "position": "OL", "longitude": -93.50333}, {"city": "Fergus Falls", "latitude": 46.28417, "state": "MN", "position": "OL", "longitude": -96.15667}, {"city": "Akron", "latitude": 41.07306, "state": "OH", "position": "OL", "longitude": -81.51778}, {"city": "Inverness", "latitude": 42.11306, "state": "IL", "position": "OL", "longitude": -88.09833}, {"city": "Brooklyn Park", "latitude": 45.09417, "state": "MN", "position": "OL", "longitude": -93.35611}, {"city": "Rochester", "latitude": 44.0234, "state": "MN", "position": "DL", "longitude": -92.46295}, {"city": "St. Paul", "latitude": 44.94417, "state": "MN", "position": "OL", "longitude": -93.09361}, {"city": "Galena Park", "latitude": 29.73889, "state": "TX", "position": "OL", "longitude": -95.23722}, {"city": "Rosemount", "latitude": 44.74111, "state": "MN", "position": "OL", "longitude": -93.11972}, {"city": "Red Wing", "latitude": 44.567, "state": "MN", "position": "OL", "longitude": -92.533}, {"city": "Eagan", "latitude": 44.81778, "state": "MN", "position": "OL", "longitude": -93.16694}, {"city": "Van Alstyne", "latitude": 33.42389, "state": "TX", "position": "OL", "longitude": -96.57861}, {"city": "Menasha", "latitude": 44.217, "state": "WI", "position": "OL", "longitude": -88.433}, {"city": "Plymouth", "latitude": 45.01056, "state": "MN", "position": "OL", "longitude": -93.45556}, {"city": "Blue Earth", "latitude": 43.64028, "state": "MN", "position": "OL", "longitude": -94.09861}, {"city": "Greenwood", "latitude": 39.61139, "state": "IN", "position": "TE", "longitude": -86.11806}, {"city": "Blaine", "latitude": 45.16083, "state": "MN", "position": "TE", "longitude": -93.23472}, {"city": "Santa Clarita", "latitude": 34.41667, "state": "CA", "position": "WR", "longitude": -118.50639}, {"city": "Minneapolis", "latitude": 44.983, "state": "MN", "position": "TE", "longitude": -93.267}, {"city": "Burnsville", "latitude": 44.76778, "state": "MN", "position": "WR", "longitude": -93.2775}, {"city": "West", "latitude": 31.80333, "state": "TX", "position": "TE", "longitude": -97.09306}, {"city": "Wayzata", "latitude": 44.97417, "state": "MN", "position": "TE", "longitude": -93.50667}, {"city": "Somerset", "latitude": 45.14167, "state": "WI", "position": "DL", "longitude": -92.7025}, {"city": "Edina", "latitude": 44.89556, "state": "MN", "position": "DB", "longitude": -93.35472}, {"city": "El Paso", "latitude": 31.79028, "state": "TX", "position": "WR", "longitude": -106.42333}, {"city": "Apple Valley", "latitude": 44.73194, "state": "MN", "position": "WR", "longitude": -93.2175}, {"city": "Memphis", "latitude": 35.1175, "state": "TN", "position": "DL", "longitude": -89.97111}, {"city": "Maple Grove", "latitude": 45.0725, "state": "MN", "position": "DL", "longitude": -93.45556}, {"city": "Minneapolis", "latitude": 44.983, "state": "MN", "position": "DL", "longitude": -93.267}, {"city": "Mobile", "latitude": 38.55556, "state": "AL", "position": "DL", "longitude": -121.46889}, {"city": "Lewisville", "latitude": 33.03833, "state": "TX", "position": "DL", "longitude": -97.00611}, {"city": "Chicago", "latitude": 41.83694, "state": "IL", "position": "DT", "longitude": -87.68472}, {"city": "Lewisville", "latitude": 33.03833, "state": "TX", "position": "DL", "longitude": -97.00611}, {"city": "Owatonna", "latitude": 44.08722, "state": "MN", "position": "DE", "longitude": -93.22444}], "longitude": -93.266667}, {"mean": 542.016568101763, "city": "Evanston", "color": "#4E2A84", "latitude": 42.046389, "name": "Northwestern", "median": 328.1772658894161, "conference": "Big Ten", "state": "IL", "roster": [{"city": "Lauderdale Lakes", "latitude": 26.17, "state": "FL", "position": "S", "longitude": -80.20139}, {"city": "Santa Monica", "latitude": 34.02194, "state": "CA", "position": "WR", "longitude": -118.48139}, {"city": "Cincinnati", "latitude": 39.1, "state": "OH", "position": "CB", "longitude": -84.517}, {"city": "Gaithersburg", "latitude": 39.13194, "state": "MD", "position": "RB", "longitude": -77.22639}, {"city": "Long Branch", "latitude": 40.295372, "state": "NJ", "position": "WR", "longitude": -73.989899}, {"city": "Kirkwood", "latitude": 38.58056, "state": "MO", "position": "WR", "longitude": -90.41417}, {"city": "Park Ridge", "latitude": 42.01194, "state": "IL", "position": "QB", "longitude": -87.84167}, {"city": "Centerville", "latitude": 39.63861, "state": "OH", "position": "DL", "longitude": -84.14806}, {"city": "Forney", "latitude": 32.75139, "state": "TX", "position": "WR", "longitude": -96.46722}, {"city": "San Diego", "latitude": 32.715, "state": "CA", "position": "PK", "longitude": -117.1625}, {"city": "Englewood", "latitude": 40.891197, "state": "NJ", "position": "WR", "longitude": -73.972515}, {"city": "Coppell", "latitude": 32.73861, "state": "TX", "position": "DB", "longitude": -96.88917}, {"city": "Baton Rouge", "latitude": 30.44861, "state": "LA", "position": "QB", "longitude": -91.12583}, {"city": "Leawood", "latitude": 38.92083, "state": "KS", "position": "QB", "longitude": -94.62222}, {"city": "Orlando", "latitude": 28.41583, "state": "FL", "position": "WR", "longitude": -81.29889}, {"city": "Plano", "latitude": 33.01972, "state": "TX", "position": "RB", "longitude": -96.69917}, {"city": "Lakewood", "latitude": 41.48083, "state": "OH", "position": "DL", "longitude": -81.80028}, {"city": "Union City", "latitude": 37.58694, "state": "CA", "position": "RB", "longitude": -122.02583}, {"city": "Houston", "latitude": 29.76278, "state": "TX", "position": "WR", "longitude": -95.38306}, {"city": "Oak Park", "latitude": 41.883, "state": "IL", "position": "QB", "longitude": -87.8}, {"city": "Houston", "latitude": 29.76278, "state": "TX", "position": "WR", "longitude": -95.38306}, {"city": "Trout Valley", "latitude": 42.19917, "state": "IL", "position": "WR", "longitude": -88.25333}, {"city": "Pickerington", "latitude": 39.89222, "state": "OH", "position": "S", "longitude": -82.76389}, {"city": "Barrington", "latitude": 42.15361, "state": "IL", "position": "QB", "longitude": -88.13194}, {"city": "University Heights", "latitude": 41.495, "state": "OH", "position": "CB", "longitude": -81.53694}, {"city": "Wheaton", "latitude": 41.85611, "state": "IL", "position": "QB", "longitude": -88.10833}, {"city": "Miami", "latitude": 25.77528, "state": "FL", "position": "LB", "longitude": -80.20889}, {"city": "Englewood", "latitude": 40.891197, "state": "NJ", "position": "WR", "longitude": -73.972515}, {"city": "Carol Stream", "latitude": 41.92194, "state": "IL", "position": "RB", "longitude": -88.14083}, {"city": "Verona", "latitude": 40.834007, "state": "NJ", "position": "S", "longitude": -74.242877}, {"city": "Bolingbrook", "latitude": 41.69861, "state": "IL", "position": "CB", "longitude": -88.08861}, {"city": "Urbana", "latitude": 40.11083, "state": "OH", "position": "CB", "longitude": -83.75139}, {"city": "Lombard", "latitude": 41.87611, "state": "IL", "position": "WR", "longitude": -88.015}, {"city": "Cordele", "latitude": 31.96417, "state": "GA", "position": "DB", "longitude": -83.77722}, {"city": "Bloomfield Hills", "latitude": 42.58361, "state": "MI", "position": "WR", "longitude": -83.24556}, {"city": "Long Beach", "latitude": 33.76833, "state": "CA", "position": "S", "longitude": -118.19556}, {"city": "Baltimore", "latitude": 39.283, "state": "MD", "position": "DB", "longitude": -76.617}, {"city": "The Plains", "latitude": 39.37028, "state": "OH", "position": "DB", "longitude": -82.13222}, {"city": "Wheaton", "latitude": 41.85611, "state": "IL", "position": "LB", "longitude": -88.10833}, {"city": "Toledo", "latitude": 41.66556, "state": "OH", "position": "LB", "longitude": -83.57528}, {"city": "Lake Zurich", "latitude": 42.19222, "state": "IL", "position": "PK", "longitude": -88.08806}, {"city": "Buford", "latitude": 34.11694, "state": "GA", "position": "DB", "longitude": -83.99861}, {"city": "Brentwood", "latitude": 37.93194, "state": "CA", "position": "LB", "longitude": -121.69583}, {"city": "Crown Point", "latitude": 41.42167, "state": "IN", "position": "LB", "longitude": -87.35611}, {"city": "Atlanta", "latitude": 33.755, "state": "GA", "position": "PK", "longitude": -84.39}, {"city": "Plainfield", "latitude": 41.61722, "state": "IL", "position": "PK", "longitude": -88.20278}, {"city": "Wheaton", "latitude": 41.85611, "state": "IL", "position": "FB", "longitude": -88.10833}, {"city": "Mansfield", "latitude": 32.57722, "state": "TX", "position": "S", "longitude": -97.12667}, {"city": "Plano", "latitude": 41.66306, "state": "IL", "position": "LB", "longitude": -88.53611}, {"city": "Avon", "latitude": 39.76306, "state": "IN", "position": "WR", "longitude": -86.38778}, {"city": "Dallas", "latitude": 32.77583, "state": "TX", "position": "RB", "longitude": -96.79667}, {"city": "Memphis", "latitude": 35.1175, "state": "TN", "position": "DL", "longitude": -89.97111}, {"city": "Houston", "latitude": 29.76278, "state": "TX", "position": "LB", "longitude": -95.38306}, {"city": "Pewaukee", "latitude": 43.067, "state": "WI", "position": "WR", "longitude": -88.25}, {"city": "Chicago", "latitude": 41.83694, "state": "IL", "position": "LB", "longitude": -87.68472}, {"city": "Bloomfield Hills", "latitude": 42.58361, "state": "MI", "position": "DB", "longitude": -83.24556}, {"city": "River Forest", "latitude": 41.89306, "state": "IL", "position": "S", "longitude": -87.8175}, {"city": "Wamego", "latitude": 39.20417, "state": "KS", "position": "LB", "longitude": -96.30833}, {"city": "Hamden", "latitude": 39.16083, "state": "OH", "position": "LB", "longitude": -82.52444}, {"city": "Lawrenceburg", "latitude": 38.03139, "state": "KY", "position": "LS", "longitude": -84.89611}, {"city": "Lorain", "latitude": 41.44833, "state": "OH", "position": "OL", "longitude": -82.16889}, {"city": "Verona", "latitude": 40.834007, "state": "NJ", "position": "LB", "longitude": -74.242877}, {"city": "Chino Hills", "latitude": 33.99389, "state": "CA", "position": "DL", "longitude": -117.75889}, {"city": "Cincinnati", "latitude": 39.1, "state": "OH", "position": "LB", "longitude": -84.517}, {"city": "Monrovia", "latitude": 34.14417, "state": "CA", "position": "LB", "longitude": -118.00194}, {"city": "Bourbonnais", "latitude": 41.16504, "state": "IL", "position": "OL", "longitude": -87.878486}, {"city": "Ashland", "latitude": 40.86694, "state": "OH", "position": "DL", "longitude": -82.31528}, {"city": "Plainfield", "latitude": 41.61722, "state": "IL", "position": "OL", "longitude": -88.20278}, {"city": "Pittsburgh", "latitude": 40.43972, "state": "PA", "position": "OL", "longitude": -79.97639}, {"city": "Morristown", "latitude": 40.796562, "state": "NJ", "position": "OL", "longitude": -74.477318}, {"city": "Indianapolis", "latitude": 39.767, "state": "IN", "position": "OL", "longitude": -86.15}, {"city": "Romeoville", "latitude": 41.64056, "state": "IL", "position": "DL", "longitude": -88.10278}, {"city": "Malvern", "latitude": 40.03444, "state": "PA", "position": "OL", "longitude": -75.51444}, {"city": "Allen", "latitude": 33.09972, "state": "TX", "position": "OL", "longitude": -96.66306}, {"city": "Hazlet", "latitude": 40.425627, "state": "NJ", "position": "OL", "longitude": -74.16869}, {"city": "Grand Rapids", "latitude": 42.96125, "state": "MI", "position": "OL", "longitude": -85.6557194}, {"city": "Jacksonville", "latitude": 39.73194, "state": "IL", "position": "OL", "longitude": -90.23444}, {"city": "Lancaster", "latitude": 40.03972, "state": "PA", "position": "OL", "longitude": -76.30444}, {"city": "Kenosha", "latitude": 42.58222, "state": "WI", "position": "OL", "longitude": -87.84556}, {"city": "Sudbury", "latitude": 42.383, "state": "MA", "position": "OL", "longitude": -71.417}, {"city": "Oak Park", "latitude": 41.883, "state": "IL", "position": "OL", "longitude": -87.8}, {"city": "Benicia", "latitude": 38.06333, "state": "CA", "position": "WR", "longitude": -122.15611}, {"city": "Owings Mills", "latitude": 39.41222, "state": "MD", "position": "WR", "longitude": -76.79306}, {"city": "Royersford", "latitude": 40.18528, "state": "PA", "position": "WR", "longitude": -75.53778}, {"city": "Honolulu", "latitude": 21.3, "state": "HI", "position": "RB", "longitude": -157.817}, {"city": "Buffalo Grove", "latitude": 42.16639, "state": "IL", "position": "WR", "longitude": -87.96333}, {"city": "West Bloomfield", "latitude": 42.57111, "state": "MI", "position": "WR", "longitude": -83.37472}, {"city": "Naperville", "latitude": 41.74806, "state": "IL", "position": "WR", "longitude": -88.16556}, {"city": "Lemont", "latitude": 41.668784, "state": "IL", "position": "WR", "longitude": -87.988845}, {"city": "Midland", "latitude": 43.61556, "state": "MI", "position": "WR", "longitude": -84.24722}, {"city": "The Woodlands", "latitude": 30.1775, "state": "TX", "position": "WR", "longitude": -95.50389}, {"city": "Erie", "latitude": 42.1295611, "state": "PA", "position": "WR", "longitude": -80.0852139}, {"city": "Peru", "latitude": 41.33444, "state": "IL", "position": "DL", "longitude": -89.1275}, {"city": "Chagrin Falls", "latitude": 41.43111, "state": "OH", "position": "OL", "longitude": -81.38861}, {"city": "LAWRENCE", "latitude": 38.97167, "state": "KS", "position": "DL", "longitude": -95.23528}, {"city": "Rockford", "latitude": 42.25944, "state": "IL", "position": "DL", "longitude": -89.06444}, {"city": "Cincinnati", "latitude": 39.1, "state": "OH", "position": "DL", "longitude": -84.517}, {"city": "Peninsula", "latitude": 41.24083, "state": "OH", "position": "P", "longitude": -81.55639}, {"city": "Scituate", "latitude": 42.19583, "state": "MA", "position": "DL", "longitude": -70.72639}, {"city": "Cedar Hill", "latitude": 32.58833, "state": "TX", "position": "DL", "longitude": -96.94722}, {"city": "Avon Lake", "latitude": 41.50167, "state": "OH", "position": "DL", "longitude": -82.00639}], "longitude": -87.694722}, {"mean": 324.9002887880478, "city": "Ann Arbor", "color": "#00274C", "latitude": 42.281389, "name": "Michigan", "median": 167.68151557551383, "conference": "Big Ten", "state": "MI", "roster": [{"city": "Lake Forest", "latitude": 42.23472, "state": "IL", "position": "WR", "longitude": -87.85083}, {"city": "Holland", "latitude": 42.783, "state": "MI", "position": "LB", "longitude": -86.1}, {"city": "Brighton", "latitude": 42.52667, "state": "MI", "position": "PK", "longitude": -83.78389}, {"city": "Richmond", "latitude": 37.533, "state": "VA", "position": "QB", "longitude": -77.467}, {"city": "Lakeland", "latitude": 28.04111, "state": "FL", "position": "DE", "longitude": -81.95889}, {"city": "Warren", "latitude": 41.23833, "state": "OH", "position": "RB", "longitude": -80.81444}, {"city": "Fort Lauderdale", "latitude": 26.133, "state": "FL", "position": "QB", "longitude": -80.15}, {"city": "East Orange", "latitude": 40.765058, "state": "NJ", "position": "S", "longitude": -74.211862}, {"city": "Grosse Pointe", "latitude": 42.383, "state": "MI", "position": "QB", "longitude": -82.917}, {"city": "Prattville", "latitude": 32.45917, "state": "AL", "position": "DB", "longitude": -86.45139}, {"city": "Delray Beach", "latitude": 26.45917, "state": "FL", "position": "DE", "longitude": -80.08306}, {"city": "Hazel Park", "latitude": 42.4625, "state": "MI", "position": "QB", "longitude": -83.10417}, {"city": "Matthews", "latitude": 35.11694, "state": "NC", "position": "CB", "longitude": -80.71639}, {"city": "Buffalo", "latitude": 42.90472, "state": "NY", "position": "TE", "longitude": -78.84944}, {"city": "Trotwood", "latitude": 39.79472, "state": "OH", "position": "LB", "longitude": -84.29}, {"city": "Bloomfield Hills", "latitude": 42.58361, "state": "MI", "position": "WR", "longitude": -83.24556}, {"city": "Albuquerque", "latitude": 35.11083, "state": "NM", "position": "QB", "longitude": -106.61}, {"city": "Westland", "latitude": 42.32417, "state": "MI", "position": "WR", "longitude": -83.40028}, {"city": "Farmington Hills", "latitude": 42.48528, "state": "MI", "position": "QB", "longitude": -83.37694}, {"city": "Detroit", "latitude": 42.33139, "state": "MI", "position": "CB", "longitude": -83.04583}, {"city": "Cincinnati", "latitude": 39.1, "state": "OH", "position": "QB", "longitude": -84.517}, {"city": "Sylvania", "latitude": 41.71139, "state": "OH", "position": "LB", "longitude": -83.70333}, {"city": "Grand Rapids", "latitude": 42.96125, "state": "MI", "position": "WR", "longitude": -85.6557194}, {"city": "Orchard Lake", "latitude": 42.58222, "state": "MI", "position": "LB", "longitude": -83.38028}, {"city": "Weston", "latitude": 26.1075, "state": "FL", "position": "QB", "longitude": -80.38806}, {"city": "Massillon", "latitude": 40.79667, "state": "OH", "position": "PK", "longitude": -81.52139}, {"city": "Detroit", "latitude": 42.33139, "state": "MI", "position": "QB", "longitude": -83.04583}, {"city": "Royal Oak", "latitude": 42.48889, "state": "MI", "position": "WR", "longitude": -83.14278}, {"city": "Wilmington", "latitude": 39.74583, "state": "DE", "position": "WR", "longitude": -75.54667}, {"city": "Huber Heights", "latitude": 39.85083, "state": "OH", "position": "DB", "longitude": -84.1275}, {"city": "Johns Creek", "latitude": 34.0289259, "state": "GA", "position": "DB", "longitude": -84.198579}, {"city": "Canal Winchester", "latitude": 39.84611, "state": "OH", "position": "RB", "longitude": -82.81167}, {"city": "Baltimore", "latitude": 39.283, "state": "MD", "position": "TE", "longitude": -76.617}, {"city": "Royal Oak", "latitude": 42.48889, "state": "MI", "position": "LB", "longitude": -83.14278}, {"city": "Ann Arbor", "latitude": 42.28139, "state": "MI", "position": "RB", "longitude": -83.74833}, {"city": "Dexter", "latitude": 42.33389, "state": "MI", "position": "DB", "longitude": -83.88167}, {"city": "Novi", "latitude": 42.48028, "state": "MI", "position": "RB", "longitude": -83.4775}, {"city": "Sarasota", "latitude": 27.33722, "state": "FL", "position": "RB", "longitude": -82.53528}, {"city": "Akron", "latitude": 41.07306, "state": "OH", "position": "S", "longitude": -81.51778}, {"city": "Aurora", "latitude": 41.76389, "state": "IL", "position": "S", "longitude": -88.29}, {"city": "Owings Mills", "latitude": 39.41222, "state": "MD", "position": "DB", "longitude": -76.79306}, {"city": "Saline", "latitude": 42.17083, "state": "MI", "position": "RB", "longitude": -83.77972}, {"city": "Fort Lauderdale", "latitude": 26.133, "state": "FL", "position": "CB", "longitude": -80.15}, {"city": "Alliance", "latitude": 40.91333, "state": "OH", "position": "S", "longitude": -81.10806}, {"city": "Detroit", "latitude": 42.33139, "state": "MI", "position": "CB", "longitude": -83.04583}, {"city": "Richmond", "latitude": 37.533, "state": "VA", "position": "RB", "longitude": -77.467}, {"city": "Saline", "latitude": 42.17083, "state": "MI", "position": "LB", "longitude": -83.77972}, {"city": "Sault Sainte Marie", "latitude": 46.49694, "state": "MI", "position": "CB", "longitude": -84.34556}, {"city": "Wilmington", "latitude": 39.74583, "state": "DE", "position": "DB", "longitude": -75.54667}, {"city": "Avon", "latitude": 41.45056, "state": "OH", "position": "RB", "longitude": -82.02167}, {"city": "Far Hills", "latitude": 40.690871, "state": "NJ", "position": "FB", "longitude": -74.621571}, {"city": "Trotwood", "latitude": 39.79472, "state": "OH", "position": "DB", "longitude": -84.29}, {"city": "Ottawa", "latitude": 41.35111, "state": "IL", "position": "LS", "longitude": -88.83778}, {"city": "Plymouth", "latitude": 42.3714889, "state": "MI", "position": "S", "longitude": -83.4704778}, {"city": "Shorewood", "latitude": 41.51833, "state": "IL", "position": "RB", "longitude": -88.215}, {"city": "Pickerington", "latitude": 39.89222, "state": "OH", "position": "DE", "longitude": -82.76389}, {"city": "Hartland", "latitude": 42.63917, "state": "MI", "position": "RB", "longitude": -83.73611}, {"city": "Madisonville", "latitude": 37.33278, "state": "KY", "position": "S", "longitude": -87.50222}, {"city": "Ann Arbor", "latitude": 42.28139, "state": "MI", "position": "FB", "longitude": -83.74833}, {"city": "Cincinnati", "latitude": 39.1, "state": "OH", "position": "LB", "longitude": -84.517}, {"city": "Traverse City", "latitude": 44.76806, "state": "MI", "position": "FB", "longitude": -85.62222}, {"city": "Hopewell Junction", "latitude": 41.583, "state": "NY", "position": "FB", "longitude": -73.8}, {"city": "Flint", "latitude": 43.01, "state": "MI", "position": "LB", "longitude": -83.69}, {"city": "Ishpeming", "latitude": 46.4925, "state": "MI", "position": "DB", "longitude": -87.6675}, {"city": "Salt Lake City", "latitude": 40.75, "state": "UT", "position": "FB", "longitude": -111.88333}, {"city": "Monroe", "latitude": 41.91639, "state": "MI", "position": "WR", "longitude": -83.39778}, {"city": "Frankenmuth", "latitude": 43.33222, "state": "MI", "position": "FB", "longitude": -83.74194},